AA: 0,type,code,price,area,location,street,floor,kitchen,bath,loft,heating,energy_class,y_build,y_rebuild,sea_dist,ID,Latitude,Longitude,schools_within_1km,dist_to_nearest_stop_m,geometry,green_area_500m,green_area_percentage,distance_to_entertainment_m,entertainment_within_1km
0,Studio / Γκαρσονιέρα,15064317,70000,39,"Άνω Τούμπα, Τούμπα (Θεσσαλονίκη - Δήμος)","Στοβαίου 19, Θεσσαλονίκη 543 51, Ελλάδα, Ελλάδα",,1,1,1,Αυτόνομη,Β,1970,,,6908e0a0-2f71-4a54-bdf4-06ffcbc63414,40.6365003,22.94837792,6,186.3390103,POINT (22.94837792 40.6365003),5516.924679,0.702792953,93.31885939,240
1,Διαμέρισμα,13718461,245000,115,"Ιπποκράτειο, Φάληρο - Ιπποκράτειο (Θεσσαλονίκη - Δήμος)","Φλέμινγκ Αλεξάνδρου 46, Θεσσαλονίκη 54642, Ελλάδα",6,1,2,1,Φυσικό αέριο,,1996,,500,4a1631c4-e462-4e9d-9154-356ee1dda92a,40.6680075,22.9321353,3,176.780992,POINT (22.9321353 40.6680075),42507.01445,5.414906299,49.05737384,40
2,Studio / Γκαρσονιέρα,17126813,158000,38,"Άγιος Δημήτριος, Κέντρο Θεσσαλονίκης (Θεσσαλονίκη - Δήμος)","Αγίου Δημητρίου 84, Θεσσαλονίκη 54631, Ελλάδα",4,1,1,,Φυσικό αέριο,Γ,,2024,500,91a5d745-b93b-4f0a-b212-6f99dbcc2b25,40.63767475,22.95620789,3,128.7084855,POINT (22.95620789 40.63767475),54024.16225,6.882058886,170.1374302,119
3,Διαμέρισμα,14595580,70000,37,"Κάστρα, Άνω Πόλη (Θεσσαλονίκη - Δήμος)","Ακροπόλεως, Θεσσαλονίκη Ελλάδα, 54634, Ελλάδα",5,1,1,,Ρεύμα,Γ,2007,2023,3000,87626e98-6d83-492c-b3f4-6a56a1b96de4,40.6274745,22.9642814,3,93.68892912,POINT (22.9642814 40.6274745),11536.13995,1.469571968,339.2305539,28
4,Διαμέρισμα,13803958,117000,46,"Ανάληψη, Ανάληψη - Μπότσαρη - Νέα Παραλία (Θεσσαλονίκη - Δήμος)","Αναλήψεως 69, Θεσσαλονίκη 54644, Ελλάδα",5,1,1,1,Φυσικό αέριο,Γ,1974,2023,800,63aeca4f-2c76-4133-88e1-70db5fd46e83,40.60675115,22.96054287,10,155.1052618,POINT (22.96054287 40.60675115),6444.761717,0.820988754,77.91924962,99
5,Διαμέρισμα,17133299,165000,50,"Ανάληψη, Ανάληψη - Μπότσαρη - Νέα Παραλία (Θεσσαλονίκη - Δήμος)","Δελφών 114, Θεσσαλονίκη 546 43, Ελλάδα, Ελλάδα",4,1,1,1,Φυσικό αέριο,Β,1972,2024,,cbbce002-bfe1-49f5-ab0d-1c6f0654006d,40.6331916,22.9427856,7,118.5734008,POINT (22.9427856 40.6331916),9757.037246,1.242934681,47.40976609,235
6,Studio / Γκαρσονιέρα,17016645,94000,42,"Καμάρα - Ροτόντα, Κέντρο Θεσσαλονίκης (Θεσσαλονίκη - Δήμος)","Μαργαρίτη Δημητρίου, 1, Θεσσαλονίκη Ελλάδα, 54621, Ελλάδα",5,1,1,1,Ρεύμα,Γ,1962,2018,200,401f147d-b6b5-47d4-b69e-de0bd8af2b26,40.6301404,22.9512422,4,50.56646517,POINT (22.9512422 40.6301404),31263.76358,3.982645042,46.92541534,197
7,Διαμέρισμα,16994937,268000,52,"Καμάρα - Ροτόντα, Κέντρο Θεσσαλονίκης (Θεσσαλονίκη - Δήμος)","Σβώλου Αλεξάνδρου 39, Θεσσαλονίκη 54621, Ελλάδα",6,1,1,1,Φυσικό αέριο,Γ,1959,2025,500,589c1d88-95a7-4c6d-80dd-b97c598928d6,40.6766896,22.802169,0,103.8056201,POINT (22.802169 40.6766896),0,0,598.8749496,8
8,Studio / Γκαρσονιέρα,16990168,110000,55,"Λαχανόκηποι, Βαρδάρης - Λαχανόκηποι (Θεσσαλονίκη - Δήμος)","Τσορλίνη Βασιλείου, 36, Θεσσαλονίκη Ελλάδα, 54627, Ελλάδα",1,1,1,1,Φυσικό αέριο,Δ,2006,,1000,12f52a3c-7754-44a6-aad3-8cfd39c79b5b,40.6440467,22.9232745,6,222.7890869,POINT (22.9232745 40.6440467),0,0,200.1549156,35
9,Διαμέρισμα,16909873,95000,50,Φάληρο - Ιπποκράτειο (Θεσσαλονίκη - Δήμος),"Καραϊσκάκη 9, Θεσσαλονίκη 546 41, Ελλάδα, Ελλάδα",5,1,1,1,Φυσικό αέριο,Δ,1966,,,ac7c19cd-2e4a-4f5d-9bf1-1f3c39a4eae5,40.6142339,22.9560755,6,190.4020306,POINT (22.9560755 40.6142339),40495.92134,5.158716094,146.206078,63
10,Μεζονέτα,16744979,375000,98,"Τριανδρία, Τριανδρία - Δόξα (Θεσσαλονίκη - Δήμος)","Μιαούλη 32, Τριανδρία 55337, Θεσσαλονίκη, Ελλάδα",5,1,1,1,Φυσικό αέριο,Α,2024,2024,1,c0670440-0546-4d36-898e-e581c9e479d0,40.624448,22.9749131,4,40.3576455,POINT (22.9749131 40.624448),0,0,280.2721788,10
11,Διαμέρισμα,16715140,230000,90,"Νέα Παραλία, Ανάληψη - Μπότσαρη - Νέα Παραλία (Θεσσαλονίκη - Δήμος)","Λεωφόρος Βασιλίσσης Όλγας, 46, Θεσσαλονίκη Ελλάδα, 54642, Ελλάδα",5,1,2,1,Φυσικό αέριο,Γ,1970,2021,30,3cfe94e9-1b0d-4459-94f5-aaa1da21809c,40.6120207,22.9538141,3,109.4327408,POINT (22.9538141 40.6120207),92573.73649,11.79283267,37.70995356,64
12,Διαμέρισμα,16663873,200000,129,"Ιπποκράτειο, Φάληρο - Ιπποκράτειο (Θεσσαλονίκη - Δήμος)","Κωνσταντινουπόλεως, Θεσσαλονίκη 54642, Ελλάδα",2,1,1,1,Φυσικό αέριο,Ε,1994,,,1d5d0faf-e9ca-489f-9b27-b6bffe4fd495,40.6964784,22.948065,0,408.9275029,POINT (22.948065 40.6964784),0,0,1098.567242,1
13,Διαμέρισμα,16617721,125000,47,"Μαρτίου, Βούλγαρη - Ντεπώ - Μαρτίου (Θεσσαλονίκη - Δήμος)","Παπακυριαζή , Θεσσαλονίκη 546 45, Ελλάδα, Ελλάδα",1,1,1,1,Φυσικό αέριο,Δ,1973,2024,600,0f93136e-0f65-40d8-9153-942b7a50e015,40.6403167,22.9352716,10,116.9200166,POINT (22.9352716 40.6403167),15433.97984,1.966112081,73.61096678,98
14,Loft,16575074,75000,35,"Καμάρα - Ροτόντα, Κέντρο Θεσσαλονίκης (Θεσσαλονίκη - Δήμος)","Γούναρη Δημητρίου 70, Θεσσαλονίκη 54635, Ελλάδα",1,1,1,1,Ρεύμα,Ε,1975,2024,550,39caa5a5-aa2d-4756-86a5-20d0d0297455,40.6299707,22.9492859,4,156.510806,POINT (22.9492859 40.6299707),27791.80896,3.540357829,100.0474911,207
15,Studio / Γκαρσονιέρα,16502272,115000,41,"Ιπποκράτειο, Φάληρο - Ιπποκράτειο (Θεσσαλονίκη - Δήμος)","Μιαούλη 29, Θεσσαλονίκη 54642, Ελλάδα",2,1,1,1,Φυσικό αέριο,Δ,1966,2024,,bb3f06ae-753e-422d-97bc-1a775b7be69a,40.6235754,22.97456113,5,65.99427406,POINT (22.97456113 40.6235754),1312.743118,0.167228423,224.1266051,13
16,Διαμέρισμα,16443333,200000,55,"Διοικητήριο, Κέντρο Θεσσαλονίκης (Θεσσαλονίκη - Δήμος)","Νιρβάνα Π. 2, Θεσσαλονίκη 54632, Ελλάδα",2,1,1,1,Φυσικό αέριο,Γ,1970,2024,,f1e2957f-e42a-4854-8752-50dc4935eee2,40.6403167,22.9352716,10,116.9200166,POINT (22.9352716 40.6403167),15433.97984,1.966112081,73.61096678,98
17,Διαμέρισμα,16435098,165000,64,"Μαρτίου, Βούλγαρη - Ντεπώ - Μαρτίου (Θεσσαλονίκη - Δήμος)","Βικόπουλου Γ. 3, Θεσσαλονίκη 54645, Ελλάδα",2,1,1,1,Φυσικό αέριο,Δ,1978,2024,70,61b122fb-c485-40cb-a06b-a7867cedadcf,40.63219905,22.95180425,4,120.2151151,POINT (22.95180425 40.63219905),34105.75742,4.344682474,32.64192932,210
18,Studio / Γκαρσονιέρα,16427000,115000,41,"Ιπποκράτειο, Φάληρο - Ιπποκράτειο (Θεσσαλονίκη - Δήμος)","28ης Οκτωβρίου 29, Θεσσαλονίκη 546 42, Ελλάδα, Ελλάδα",2,1,1,1,Φυσικό αέριο,,1966,2024,350,d171eef6-ef05-4e5b-84c5-b2cb775abffa,40.610288,22.9599642,10,221.5174137,POINT (22.9599642 40.610288),10979.60053,1.398675226,206.0726858,81
19,Διαμέρισμα,16359536,125000,40,"Τριανδρία, Τριανδρία - Δόξα (Θεσσαλονίκη - Δήμος)","Βερμίου 8, Τριανδρία 55337, Θεσσαλονίκη, Ελλάδα",2,1,1,1,Φυσικό αέριο,Β,1976,2024,8000,b04481ae-4f01-4135-bc45-7aa6399cd62c,40.6231477,22.973274,4,62.24510035,POINT (22.973274 40.6231477),2195.675342,0.279703865,94.38335639,16
20,Studio / Γκαρσονιέρα,16357449,135000,40,"Αγία Τριάδα, Φάληρο - Ιπποκράτειο (Θεσσαλονίκη - Δήμος)","Λεωφ. Στρατού 13, Θεσσαλονίκη 546 39, Ελλάδα, Ελλάδα",1,1,1,1,Φυσικό αέριο,Α,1965,2024,,c61cfdeb-028c-41f7-b67c-b3ad63f5fc3e,40.6264507,22.9530025,5,105.4647378,POINT (22.9530025 40.6264507),121942.5499,15.53408279,114.6169414,135
21,Διαμέρισμα,16317591,160000,65,"Καμάρα - Ροτόντα, Κέντρο Θεσσαλονίκης (Θεσσαλονίκη - Δήμος)","Μαργαρίτη Δημητρίου 12, Θεσσαλονίκη 54621, Ελλάδα",,1,1,1,Ρεύμα,Η,1968,,,030eb3a8-4b4e-4e9b-856e-f8975cb2814d,40.6297031,22.9519502,4,72.57955155,POINT (22.9519502 40.6297031),34786.81305,4.431441153,31.801638,190
22,Studio / Γκαρσονιέρα,16215020,147000,40,"Βαρδάρης, Βαρδάρης - Λαχανόκηποι (Θεσσαλονίκη - Δήμος)","Πλατεία Αντιγονιδών, Θεσσαλονίκη Ελλάδα, 54630, Ελλάδα",4,1,1,1,Φυσικό αέριο,,1976,2024,,7ba347ec-e7b1-45fb-a4bf-e2dcf435bbcd,40.6307142,22.94877699,4,128.8671714,POINT (22.94877699 40.6307142),26042.26148,3.317485539,46.95354403,214
23,Διαμέρισμα,16179789,95000,40,"Καμάρα - Ροτόντα, Κέντρο Θεσσαλονίκης (Θεσσαλονίκη - Δήμος)","Αλ. Σβώλου 41, Θεσσαλονίκη 546 21, Ελλάδα, Ελλάδα",,1,1,1,Πετρέλαιο,Ε,1960,2024,600,82cbf22a-d1dc-415c-bd96-52816c2482bf,40.6325313,22.9476387,6,107.2309828,POINT (22.9476387 40.6325313),24204.74296,3.083406746,15.73272607,242
24,Studio / Γκαρσονιέρα,16172693,120000,45,"Λαδάδικα, Κέντρο Θεσσαλονίκης (Θεσσαλονίκη - Δήμος)","Φράγκων 20, Θεσσαλονίκη 54625, Ελλάδα",8,1,1,,Ρεύμα,Δ,1970,2022,500,34e6f22b-1982-49c1-bc0d-ec4358ad8a0b,40.63503015,22.94059824,7,63.89986429,POINT (22.94059824 40.63503015),95.41348686,0.012154584,21.37463495,196
25,Διαμέρισμα,15996764,85000,37,"Αγία Σοφία, Κέντρο Θεσσαλονίκης (Θεσσαλονίκη - Δήμος)","Παπαγεωργίου Π., 8, Θεσσαλονίκη Ελλάδα, 54635, Ελλάδα",5,1,1,1,Ρεύμα,,1967,2024,500,fba2dfe1-4f04-4814-84a1-8d6f3a0c190b,40.6274745,22.9642814,3,93.68892912,POINT (22.9642814 40.6274745),11536.13995,1.469571968,339.2305539,28
26,Διαμέρισμα,15886057,165000,70,"Παναγία Φανερωμένη, Ξηροκρήνη - Παναγία Φανερωμένη (Θεσσαλονίκη - Δήμος)","Αρχαιοτήτων 30, Θεσσαλονίκη, Ελλάδα",3,1,1,1,Φυσικό αέριο,Α,Υπό κατασκευή,,,d088719a-14eb-4069-bdc7-eb546f1d4c7f,40.6454728,22.939831,14,71.1048481,POINT (22.939831 40.6454728),82229.59839,10.47510808,167.9416233,76
27,Διαμέρισμα,15833235,73000,30,"Αγία Τριάδα, Φάληρο - Ιπποκράτειο (Θεσσαλονίκη - Δήμος)","Σπυρίδωνος Τρικούπη 5, Θεσσαλονίκη 546 40, Ελλάδα, Ελλάδα",,,1,,Φυσικό αέριο,Γ,1967,2024,800,82310088-192a-4914-ab5d-a5685c5399bd,40.616818,22.9570695,4,173.7494189,POINT (22.9570695 40.616818),20307.44893,2.58693617,155.5736895,58
28,Διαμέρισμα,15812474,210000,110,Κέντρο Θεσσαλονίκης (Θεσσαλονίκη - Δήμος),"Εγνατία 41, Θεσσαλονίκη 546 30, Ελλάδα, Ελλάδα",2,1,1,1,Ρεύμα,,1953,2020,400,8cbe163a-670c-417c-83cb-0f52faa01d2c,40.6387897,22.9385065,10,63.28271086,POINT (22.9385065 40.6387897),4980.257374,0.634427691,35.75028931,144
29,Studio / Γκαρσονιέρα,15783902,148000,40,"Ιστορικό Κέντρο, Κέντρο Θεσσαλονίκης (Θεσσαλονίκη - Δήμος)","Φιλίππου 30, Θεσσαλονίκη 54631, Ελλάδα",3,1,1,1,Φυσικό αέριο,Δ,1976,2024,800,e3559127-0a14-41a7-88e8-be5a36495d9b,40.5800319,22.9602618,4,180.8473597,POINT (22.9602618 40.5800319),22004.4662,2.803116713,374.5325774,26
30,Διαμέρισμα,15687914,125000,55,"Άγιος Δημήτριος, Κέντρο Θεσσαλονίκης (Θεσσαλονίκη - Δήμος)","Πέλοπος 3, Θεσσαλονίκη 54633, Ελλάδα",6,1,1,1,Φυσικό αέριο,Α,1975,2023,,b5b6ab8e-754e-46f0-92ca-76fb1e380b2a,40.6385299,22.9493352,7,40.66795224,POINT (22.9493352 40.6385299),5847.340198,0.744884102,46.85033628,204
31,Διαμέρισμα,15327325,107000,32,"Τριανδρία, Τριανδρία - Δόξα (Θεσσαλονίκη - Δήμος)","Υψηλάντη Αλέξανδρου 25-49, 553 37, Τριανδρία, Θεσσαλονίκη, Ελλάδα",2,1,1,1,Φυσικό αέριο,Α,2024,,2500,bdbe92b3-bfea-4a51-aeec-769d6ee002d3,40.62481225,22.9733059,6,166.9883344,POINT (22.9733059 40.62481225),2180.774832,0.277805711,160.5526921,9
32,Διαμέρισμα,15150509,325000,108,"Κάτω Τούμπα, Τούμπα (Θεσσαλονίκη - Δήμος)","Δημητσάνας 6, Θεσσαλονίκη 544 54, Ελλάδα, Ελλάδα",4,1,2,1,,Α,Υπό κατασκευή,,,4ba98bfd-30f9-4101-a442-3465b590baa5,40.6403167,22.9352716,10,116.9200166,POINT (22.9352716 40.6403167),15433.97984,1.966112081,73.61096678,98
33,Studio / Γκαρσονιέρα,15064274,160000,47,"Καμάρα - Ροτόντα, Κέντρο Θεσσαλονίκης (Θεσσαλονίκη - Δήμος)","Στρ. Δαγκλή 29, Θεσσαλονίκη 546 21, Ελλάδα, Ελλάδα",6,1,1,1,Αυτόνομη,Δ,1965,,,009bc3e3-e153-4ae8-b9d2-b1203f02dcbd,40.6451119,22.9291851,11,0,POINT (22.9291851 40.6451119),8288.675154,1.055882185,71.96837914,44
34,Διαμέρισμα,15035684,245000,70,"Βαρδάρης, Βαρδάρης - Λαχανόκηποι (Θεσσαλονίκη - Δήμος)","Εγνατία, 18, Θεσσαλονίκη Ελλάδα, 54626, Ελλάδα",7,1,1,1,Φυσικό αέριο,Η,1954,2023,,12e37609-3f2c-4edd-bacf-a9514e15d857,40.6387897,22.9385065,10,63.28271086,POINT (22.9385065 40.6387897),4980.257374,0.634427691,35.75028931,144
35,Διαμέρισμα,15007999,110000,68,"Παναγία Φανερωμένη, Ξηροκρήνη - Παναγία Φανερωμένη (Θεσσαλονίκη - Δήμος)","Κάλβου Ανδρέα 32, Θεσσαλονίκη 54632, Ελλάδα",4,1,1,1,Φυσικό αέριο,Β,1975,2023,,f5c80fb9-ba30-4fd4-bb6b-ad539854c5ea,40.6422189,22.9382262,12,174.5695413,POINT (22.9382262 40.6422189),78289.24883,9.973152717,51.14368401,108
36,Διαμέρισμα,14957029,62000,65,"Ευαγγελίστρια, 40 Εκκλησιές - Ευαγγελίστρια (Θεσσαλονίκη - Δήμος)","Πανεπιστημίου 20, Άγιος Παύλος 55437, Θεσσαλονίκη, Ελλάδα",3,1,1,1,Ρεύμα,Γ,1980,2010,2000,5ebd855a-8bd1-47d5-bfed-1e46d1600c54,40.6345227,22.9578549,5,40.71533832,POINT (22.9578549 40.6345227),83239.28462,10.60373052,282.7995159,123
37,Διαμέρισμα,14281709,230000,100,"Μπότσαρη, Ανάληψη - Μπότσαρη - Νέα Παραλία (Θεσσαλονίκη - Δήμος)","Μαρκ. Μπότσαρη 12, Θεσσαλονίκη 546 43, Ελλάδα, Ελλάδα",3,1,1,1,Φυσικό αέριο,Δ,1965,,,af0eef34-0553-4ec8-b1b5-2b396bdd8619,40.6331916,22.9427856,7,118.5734008,POINT (22.9427856 40.6331916),9757.037246,1.242934681,47.40976609,235
38,Διαμέρισμα,14082071,145000,92,"Αγία Τριάδα, Φάληρο - Ιπποκράτειο (Θεσσαλονίκη - Δήμος)","Καραϊσκάκη 15, Θεσσαλονίκη 54641, Ελλάδα",5,1,1,1,Φυσικό αέριο,Ε,1970,,,87af1253-b323-4c9a-9a88-e68340ee2d55,40.61612135,22.95470436,4,114.857584,POINT (22.95470436 40.61612135),66811.71745,8.511046809,22.48692108,54
39,Διαμέρισμα,13509976,,138,"Οσία Ξένη, Χαριλάου (Θεσσαλονίκη - Δήμος)","Νεμέας, 41, Θεσσαλονίκη Ελλάδα, 54249, Ελλάδα",9,1,2,1,Φυσικό αέριο,Α,Υπό κατασκευή,,1500,02ed3403-7df9-4715-bbcb-5db9d69e8322,40.6032252,22.9663589,13,57.04972863,POINT (22.9663589 40.6032252),7563.954625,0.963561099,102.8230758,79
40,Διαμέρισμα,11880990,250000,110,"Ιστορικό Κέντρο, Κέντρο Θεσσαλονίκης (Θεσσαλονίκη - Δήμος)","Εγνατία 56, Θεσσαλονίκη 546 24, Ελλάδα, Ελλάδα",5,1,1,1,Φυσικό αέριο,Ε,1975,,,28e844dd-02c5-430a-8bda-b19b0d0c82da,40.6370288,22.9418926,8,23.6515,POINT (22.9418926 40.6370288),0,0,67.64968698,204
41,Studio / Γκαρσονιέρα,11162657,185000,63,"Ιπποκράτειο, Φάληρο - Ιπποκράτειο (Θεσσαλονίκη - Δήμος)","Δεληγιάννη 14, 546 41, Θεσσαλονίκη, Ελλάδα",1,1,1,1,Φυσικό αέριο,Α,Υπό κατασκευή,,1000,7e9c00f6-213f-40fa-a1ce-383bf741d6f4,40.6144848,22.9599298,7,51.63034681,POINT (22.9599298 40.6144848),8489.719424,1.08149292,102.6416382,64
42,Studio / Γκαρσονιέρα,17102175,90000,42,"Βαρδάρης, Βαρδάρης - Λαχανόκηποι (Θεσσαλονίκη - Δήμος)","Αφροδίτης 2-4, 546 29, Θεσσαλονίκη, Ελλάδα",6,1,1,1,Ρεύμα,Η,1970,2023,1200,bad7c95f-8a80-4f37-9cb5-4d8a852254f4,40.6451119,22.9291851,11,0,POINT (22.9291851 40.6451119),8288.675154,1.055882185,71.96837914,44
43,Διαμέρισμα,17066468,85000,73,"Παναγία Φανερωμένη, Ξηροκρήνη - Παναγία Φανερωμένη (Θεσσαλονίκη - Δήμος)","Δραγουμάνου Στ. 1, Θεσσαλονίκη 54629, Ελλάδα",1,1,,,Φυσικό αέριο,Β,1975,2015,,6326de9b-c994-4f0e-bac6-dc499bd89289,40.6138703,22.97236555,14,137.0421928,POINT (22.97236555 40.6138703),27404.6904,3.491043363,150.3579655,50
44,Διαμέρισμα,16923362,140000,70,"Κάτω Τούμπα, Τούμπα (Θεσσαλονίκη - Δήμος)","Στοβαίου 12, Θεσσαλονίκη, Ελλάδα",3,1,1,1,Φυσικό αέριο,Ε,1979,2010,,497adbd8-266d-429c-8c79-ab53cd270f0b,40.6150804,22.9752477,14,76.40378924,POINT (22.9752477 40.6150804),19703.43752,2.509992041,99.33412203,35
45,Studio / Γκαρσονιέρα,14321952,88750,22,"Παπάφη, Τούμπα (Θεσσαλονίκη - Δήμος)","Λεωφόρος Καραμανλή Κωνσταντίνου, 8, Θεσσαλονίκη Ελλάδα, 5463, Ελλάδα",2,1,,,Ρεύμα,Α,1996,2024,498,81279540-4259-437c-8214-dde17c3535dc,40.5775874,22.9574974,2,95.41730211,POINT (22.9574974 40.5775874),20108.71178,2.561619335,451.8762664,34
46,Διαμέρισμα,16723280,300000,88,"Ιπποκράτειο, Φάληρο - Ιπποκράτειο (Θεσσαλονίκη - Δήμος)","Μάρκου Μπότσαρη, 546 44, Θεσσαλονίκη, Ελλάδα",2,1,1,1,Φυσικό αέριο,Α,2024,,,9d9a328b-8c51-4850-a59c-4a84455318b4,40.607695,22.9634763,11,96.36794623,POINT (22.9634763 40.607695),5154.028908,0.656564192,27.76045834,93
47,Studio / Γκαρσονιέρα,16031391,88000,25,"Άγιος Δημήτριος, Κέντρο Θεσσαλονίκης (Θεσσαλονίκη - Δήμος)","Κασσάνδρου 66-72, 546 33, Θεσσαλονίκη, Ελλάδα",6,,1,1,Φυσικό αέριο,,1964,2024,,4b69f74a-ac60-4bee-a25e-d82c975d3813,40.6388658,22.9493388,8,8.878124193,POINT (22.9493388 40.6388658),5704.040121,0.726629315,54.3086243,192
48,Διαμέρισμα,15245900,125000,39,"Δόξα, Τριανδρία - Δόξα (Θεσσαλονίκη - Δήμος)","Τζουμαγιάς, Τριανδρία Ελλάδα, 55337, Θεσσαλονίκη, Ελλάδα",2,1,1,1,Φυσικό αέριο,Γ,1976,2024,5000,660fd733-9f5f-499d-88c7-06826fc5dfde,40.6231596,22.9707192,5,89.89131426,POINT (22.9707192 40.6231596),7101.450845,0.90464342,209.0030688,17
49,Διαμέρισμα,14117402,290000,120,"Βούλγαρη - Άγιος Ελευθέριος - Ντεπώ, Βούλγαρη - Ντεπώ - Μαρτίου (Θεσσαλονίκη - Δήμος)","Σοφούλη Θεμιστοκλή 30, 546 55, Θεσσαλονίκη, Ελλάδα",3,1,1,1,Φυσικό αέριο,,1975,,200,0cd57eb1-7310-4e02-a911-50abf8855db1,40.5938478,22.9514154,4,68.15946518,POINT (22.9514154 40.5938478),569.0588299,0.072491571,275.2470616,39
50,Διαμέρισμα,17155558,250000,70,"Νέα Ελβετία, Χαριλάου (Θεσσαλονίκη - Δήμος)","Καθηγητού Σιγάλα Μαρίνου 13, Θεσσαλονίκη 54248, Ελλάδα",2,1,1,1,Φυσικό αέριο,Α,2000,,,0c52f4a5-fe1b-457a-a9d7-d4a12ee8ff72,40.6001188,22.96114587,11,170.6961444,POINT (22.96114587 40.6001188),18796.27676,2.394430161,145.8753272,89
51,Διαμέρισμα,17023162,330000,80,"Βαρδάρης, Βαρδάρης - Λαχανόκηποι (Θεσσαλονίκη - Δήμος)","Στρατηγού Μπραντούνα 4, Θεσσαλονίκη 54626, Ελλάδα",7,2,2,1,Φυσικό αέριο,Δ,1960,,,9d6c7150-123b-427f-806c-fc3fdcbcaf94,40.6384606,22.935347,8,83.87508434,POINT (22.935347 40.6384606),7746.918386,0.986868584,109.5569369,120
52,Διαμέρισμα,16817788,105000,30,"Βαρδάρης, Βαρδάρης - Λαχανόκηποι (Θεσσαλονίκη - Δήμος)","Λέοντος Σοφού 8-12, 546 25, Θεσσαλονίκη, Ελλάδα",1,,,,Ρεύμα,Γ,1975,2024,320,d31d8160-d5d5-4c65-b58d-46d90e4fec0a,40.6367978,22.9364632,5,105.2755894,POINT (22.9364632 40.6367978),1357.435039,0.172921661,202.2465219,140
53,Studio / Γκαρσονιέρα,16810308,115000,62,"Βούλγαρη - Άγιος Ελευθέριος - Ντεπώ, Βούλγαρη - Ντεπώ - Μαρτίου (Θεσσαλονίκη - Δήμος)","Στρωμνίτσης 9-13, 542 48, Θεσσαλονίκη, Ελλάδα",3,1,1,1,Φυσικό αέριο,Δ,1967,2024,,9f5a869d-30cf-47e1-8967-dfb4c1f7dc0d,40.5955119,22.9639732,9,132.4943538,POINT (22.9639732 40.5955119),15994.22901,2.037481402,178.2769979,47
54,Διαμέρισμα,16746060,150000,77,"Βαρδάρης, Βαρδάρης - Λαχανόκηποι (Θεσσαλονίκη - Δήμος)","Αγίου Δημητρίου 9-13, 546 32, Θεσσαλονίκη, Ελλάδα",2,1,1,1,Φυσικό αέριο,Ε,1971,,950,a5b060c8-aabf-443f-93b4-dd6d566ab0b5,40.643202,22.938514,12,165.7300853,POINT (22.938514 40.643202),91144.57906,11.6107744,115.6374033,96
55,Διαμέρισμα,16282989,90000,55,"Μπότσαρη, Ανάληψη - Μπότσαρη - Νέα Παραλία (Θεσσαλονίκη - Δήμος)","Μακεδονίας, 44, Θεσσαλονίκη Ελλάδα, 54644, Ελλάδα",,1,1,1,,Γ,1960,2024,,5af7d6db-5ee9-4ec9-829b-64350cf2dd99,40.6403167,22.9352716,10,116.9200166,POINT (22.9352716 40.6403167),15433.97984,1.966112081,73.61096678,98
56,Διαμέρισμα,15658468,135000,43,"Ιστορικό Κέντρο, Κέντρο Θεσσαλονίκης (Θεσσαλονίκη - Δήμος)","Αγίου Δημητρίου 110-112, 546 31, Θεσσαλονίκη, Ελλάδα",6,1,1,1,Φυσικό αέριο,Β,1952,2024,400,07517b4c-c789-48a2-864d-0e40e502e479,40.6378355,22.94860424,6,61.7025877,POINT (22.94860424 40.6378355),5310.211963,0.676460123,73.99824103,220
57,Διαμέρισμα,17143425,89500,50,"Ιπποκράτειο, Φάληρο - Ιπποκράτειο (Θεσσαλονίκη - Δήμος)","Γαριβάλδη 16, Θεσσαλονίκη 54642, Ελλάδα",3,1,1,1,Πετρέλαιο,,1966,,800,345a2697-c9f1-4b28-815c-cb60334e4897,40.6119116,22.96372381,7,77.98429034,POINT (22.96372381 40.6119116),9140.325371,1.164372659,86.13858405,82
58,Διαμέρισμα,17112473,50000,65,"Άνω Τούμπα, Τούμπα (Θεσσαλονίκη - Δήμος)","Γρ. Λαμπράκη 116, Θεσσαλονίκη 543 51, Ελλάδα, Ελλάδα",,1,1,1,Ατομική θέρμανση,Δ,1977,2023,,a9e9d3a3-44e4-4907-bbc8-efe5114f559f,40.6359627,22.9410667,7,47.43204513,POINT (22.9410667 40.6359627),95.41348686,0.012154584,60.46176994,200
59,Διαμέρισμα,17002022,138000,43,"Καμάρα - Ροτόντα, Κέντρο Θεσσαλονίκης (Θεσσαλονίκη - Δήμος)","Αποστόλου Παύλου 24, Θεσσαλονίκη 54634, Ελλάδα",,1,1,1,Φυσικό αέριο,Β,1970,2025,950,5a454f64-937e-4c65-963d-db5f28beb023,40.6361522,22.9546362,5,58.97950017,POINT (22.9546362 40.6361522),25906.63151,3.300207835,26.73568526,163
60,Διαμέρισμα,16996599,195000,55,"Μαρτίου, Βούλγαρη - Ντεπώ - Μαρτίου (Θεσσαλονίκη - Δήμος)","Αλεξανδρείας 77, Θεσσαλονίκη 54645, Ελλάδα",5,1,1,1,Φυσικό αέριο,Γ,1966,2025,800,96688970-5cae-492c-8429-2e387e9821fd,40.6091803,22.96632693,11,84.63031898,POINT (22.96632693 40.6091803),5297.191474,0.674801462,63.34451037,81
61,Studio / Γκαρσονιέρα,16392754,129000,43,"Βούλγαρη - Άγιος Ελευθέριος - Ντεπώ, Βούλγαρη - Ντεπώ - Μαρτίου (Θεσσαλονίκη - Δήμος)","Βασιλίσσης Όλγας 142, Θεσσαλονίκη, Ελλάδα",1,1,1,1,Φυσικό αέριο,,1970,2024,,41a29668-7d88-46c0-b8cb-9a542ae9ba71,40.5921137,22.9574526,2,65.48013958,POINT (22.9574526 40.5921137),16474.32716,2.098640402,278.852286,40
62,Studio / Γκαρσονιέρα,14991049,115000,35,"Παπάφη, Τούμπα (Θεσσαλονίκη - Δήμος)","Καρακάση 114, Θεσσαλονίκη 54453, Ελλάδα",1,1,1,1,Φυσικό αέριο,,1965,2024,1850,b2bd8606-24a5-485a-a1fc-94b407d2f946,40.6084317,22.9673126,12,37.57185231,POINT (22.9673126 40.6084317),7106.822287,0.90532768,84.95016579,79
63,Studio / Γκαρσονιέρα,14195514,79000,25,"Άνω Τούμπα, Τούμπα (Θεσσαλονίκη - Δήμος)","Τρικάλων 16, Θεσσαλονίκη 54351, Ελλάδα",1,1,1,,Ρεύμα,,1978,2022,1700,cb05abeb-f067-4ddd-bcb6-86080d824f45,40.6090121,22.9840108,10,35.02164884,POINT (22.9840108 40.6090121),71755.62242,9.140843621,154.6221676,25
64,Studio / Γκαρσονιέρα,17011979,83000,35,"Ανάληψη, Ανάληψη - Μπότσαρη - Νέα Παραλία (Θεσσαλονίκη - Δήμος)","Μαντινείας 15-21, 546 44, Θεσσαλονίκη, Ελλάδα",2,,1,,Χωρίς θέρμανση,Β,1975,,500,bb94de1a-7682-472c-afa5-a768e4829b06,40.6080423,22.9615704,9,168.1863767,POINT (22.9615704 40.6080423),10041.3656,1.279154853,105.9597653,91
65,Διαμέρισμα,16869183,275000,89,"Μαλακοπή, Τούμπα (Θεσσαλονίκη - Δήμος)","Γκούρα Ιωάννου 35, Θεσσαλονίκη 54352, Ελλάδα",2,1,1,1,Φυσικό αέριο,Α,2024,,,64170d7f-d898-4b0e-b8b4-e25e0255f410,40.6132329,22.9857123,9,170.2300785,POINT (22.9857123 40.6132329),1784.594885,0.227336928,167.4644891,19
66,Studio / Γκαρσονιέρα,16797784,130000,48,Χαριλάου (Θεσσαλονίκη - Δήμος),"Φαίδρας 27-29, 542 49, Θεσσαλονίκη, Ελλάδα",2,1,1,1,Φυσικό αέριο,Γ,1978,2024,,445f7bba-ce51-480c-bd64-914b53b05ecd,40.6008171,22.967051,12,232.0143746,POINT (22.967051 40.6008171),23226.08274,2.958736655,214.1958393,70
67,Διαμέρισμα,16713223,285000,99,Τούμπα (Θεσσαλονίκη - Δήμος),"Μιχαήλ Χουρμούζη 29, Θεσσαλονίκη 544 53, Ελλάδα, Ελλάδα",7,1,1,1,Αυτόνομη,Β,2006,,,29a34c11-5075-4dd1-8a88-5411181f059f,40.6061197,22.9710767,12,53.87435456,POINT (22.9710767 40.6061197),28726.43109,3.659417973,53.85413782,63
70,Studio / Γκαρσονιέρα,15996721,32000,32,Κέντρο Θεσσαλονίκης (Θεσσαλονίκη - Δήμος),"Ἁγ. Δημητρίου 147, Θεσσαλονίκη 546 35, Ελλάδα, Ελλάδα",,1,1,1,Χωρίς θέρμανση,,1968,,,0e90d767-d28c-4ad9-8a7d-de948277d6f9,40.63219905,22.95180425,4,120.2151151,POINT (22.95180425 40.63219905),34105.75742,4.344682474,32.64192932,210
71,Studio / Γκαρσονιέρα,15352014,73000,30,"Αγία Τριάδα, Φάληρο - Ιπποκράτειο (Θεσσαλονίκη - Δήμος)","Αμαλίας, 43, Θεσσαλονίκη Ελλάδα, 54640, Ελλάδα",5,1,1,1,Φυσικό αέριο,Ε,1961,2024,800,f90bb4fd-98d3-43d0-af43-3f244ed3de85,40.6331916,22.9427856,7,118.5734008,POINT (22.9427856 40.6331916),9757.037246,1.242934681,47.40976609,235
72,Διαμέρισμα,16996290,178000,40,"Αγία Σοφία, Κέντρο Θεσσαλονίκης (Θεσσαλονίκη - Δήμος)","Παλαιολόγου Κωνσταντίνου 8, Θεσσαλονίκη 54622, Ελλάδα",2,1,1,1,Φυσικό αέριο,Γ,1958,2025,500,fc6f06f4-2ade-46d9-88d3-5d69f4fcb731,40.6328345,22.9497686,4,31.22225164,POINT (22.9497686 40.6328345),38419.68852,4.894227837,51.82930688,235
73,Διαμέρισμα,16840604,240000,97,"Βρυσάκι, Χαριλάου (Θεσσαλονίκη - Δήμος)","25ης Μαρτίου, Θεσσαλονίκη 54248, Ελλάδα",3,1,1,1,Φυσικό αέριο,Α,1982,2024,500,08e72da9-a2ea-4a31-b5ad-45bebff8bead,40.6021689,22.9641306,10,114.541097,POINT (22.9641306 40.6021689),7856.160089,1.000784725,37.41124865,88
74,Studio / Γκαρσονιέρα,16457689,130000,30,"Αγία Τριάδα, Φάληρο - Ιπποκράτειο (Θεσσαλονίκη - Δήμος)","Θεαγένους Χαρίση 36, Θεσσαλονίκη 54639, Ελλάδα",1,1,1,1,Φυσικό αέριο,Α,1965,2024,1500,20eb80aa-30f2-4c0c-b5dc-a17b9c9b958c,40.6187931,22.9593524,4,94.69498533,POINT (22.9593524 40.6187931),3096.319922,0.394435659,78.73983719,58
75,Studio / Γκαρσονιέρα,16076450,110000,44,"Βρυσάκι, Χαριλάου (Θεσσαλονίκη - Δήμος)","Λεωφόρος Καραμανλή Κωνσταντίνου 151, Θεσσαλονίκη 54249, Ελλάδα",1,,1,1,Φυσικό αέριο,Γ,1981,2024,,fd12a4df-c16f-49c9-b44a-0f55d74ef9c0,40.60212465,22.9645482,10,106.4669777,POINT (22.9645482 40.60212465),7498.273891,0.955194126,84.13451543,88
76,Διαμέρισμα,14816268,147000,62,Φάληρο - Ιπποκράτειο (Θεσσαλονίκη - Δήμος),"Δελφών 11, Θεσσαλονίκη, Ελλάδα",2,,1,,Φυσικό αέριο,Β,1975,2022,,55c479eb-7397-48e0-a4d4-aab9addeb6e7,40.6020235,22.9590577,10,20.45669096,POINT (22.9590577 40.6020235),16602.27426,2.114939396,82.21540993,90
77,Μεζονέτα,14388669,440000,148,"Άνω Τούμπα, Τούμπα (Θεσσαλονίκη - Δήμος)","Στρατήγη Γεώργιου 5, 543 52, Θεσσαλονίκη, Ελλάδα",6,1,2,1,Φυσικό αέριο,Β,2023,,,459bbb2b-8c75-460d-8008-d1aeb61972a5,40.6120222,22.9809485,11,123.5643701,POINT (22.9809485 40.6120222),33548.0484,4.273636738,177.8596606,30
78,Διαμέρισμα,16800299,115000,73,"Ιπποκράτειο, Φάληρο - Ιπποκράτειο (Θεσσαλονίκη - Δήμος)","Μιαούλη, 16, Θεσσαλονίκη Ελλάδα, 54642, Ελλάδα",2,1,1,1,Χωρίς θέρμανση,Γ,1965,,,867b529e-7e7f-4597-a89a-2f74e2d8e452,40.64171625,22.91342454,3,127.8284628,POINT (22.91342454 40.64171625),0,0,521.0452924,9
79,Studio / Γκαρσονιέρα,15692734,97000,30,"Τσινάρι, Άνω Πόλη (Θεσσαλονίκη - Δήμος)","Πηλέως 17, Θεσσαλονίκη 54633, Ελλάδα",2,1,1,1,Φυσικό αέριο,Α,1970,2024,1000,d960445b-563e-4ffd-b22a-77ed95ab1b9f,40.6417612,22.95226088,11,111.5076907,POINT (22.95226088 40.6417612),9239.645741,1.177024935,191.5218211,98
80,Διαμέρισμα,16923187,700000,115,"Ιστορικό Κέντρο, Κέντρο Θεσσαλονίκης (Θεσσαλονίκη - Δήμος)","Εγνατία 100, Θεσσαλονίκη 54623, Ελλάδα",6,1,1,1,Πετρέλαιο,Ζ,1955,,,02171360-910a-4e6a-8a5f-7d212d5258b5,40.63455485,22.94619585,7,26.85035746,POINT (22.94619585 40.63455485),11667.0666,1.486250522,35.0814776,249
81,Διαμέρισμα,16582051,159000,76,"Μαλακοπή, Τούμπα (Θεσσαλονίκη - Δήμος)","Μακεδονομάχου Τσιαπάνου Δημ. 52, Θεσσαλονίκη 54352, Ελλάδα",,1,1,1,Φυσικό αέριο,Β,1978,,,32a4953b-e695-4c10-93f8-48be7f7d1bcc,40.6198991,22.9756953,7,182.2072838,POINT (22.9756953 40.6198991),3737.547055,0.476120644,456.296475,19
82,Studio / Γκαρσονιέρα,16485933,175000,54,"Τριανδρία, Τριανδρία - Δόξα (Θεσσαλονίκη - Δήμος)","Σερρών 2-24, 553 37, Τριανδρία, Θεσσαλονίκη, Ελλάδα",4,1,1,1,Φυσικό αέριο,Α,2024,,1700,294588ca-a1c6-4683-aa50-bac984859726,40.6223931,22.969846,5,23.11802303,POINT (22.969846 40.6223931),8175.303705,1.041439962,119.0421665,20
83,Studio / Γκαρσονιέρα,16062378,120000,40,"Καμάρα - Ροτόντα, Κέντρο Θεσσαλονίκης (Θεσσαλονίκη - Δήμος)","Εξάρχη Λάζου 9, Θεσσαλονίκη 54634, Ελλάδα",4,1,1,,Ρεύμα,,1971,,1000,57378277-53ee-48b6-abf6-a25328d2782e,40.636248,22.953496,5,57.15717459,POINT (22.953496 40.636248),8766.732322,1.116781187,80.72390352,183
84,Διαμέρισμα,15779815,180000,65,"Μαρτίου, Βούλγαρη - Ντεπώ - Μαρτίου (Θεσσαλονίκη - Δήμος)","Καρυωτάκη 4, Θεσσαλονίκη 54645, Ελλάδα",1,1,1,1,Υγραέριο,Β,1980,2024,200,bebacdfa-5c39-4fe8-b46b-e38c403515fb,40.6027968,22.9514084,7,156.6289509,POINT (22.9514084 40.6027968),47326.98996,6.028915919,125.0854262,58
85,Διαμέρισμα,15542695,168000,69,"Μπότσαρη, Ανάληψη - Μπότσαρη - Νέα Παραλία (Θεσσαλονίκη - Δήμος)","Μητρόπουλου Δημητρίου 23, Θεσσαλονίκη 54642, Ελλάδα",2,1,1,1,Φυσικό αέριο,Γ,1973,2024,1000,98e378bf-b5c9-4e0f-aac3-6dc9a4432b94,40.630849,22.943632,6,80.39721994,POINT (22.943632 40.630849),10571.14287,1.346642403,67.84079821,219
86,Διαμέρισμα,13804035,106000,40,"Ανάληψη, Ανάληψη - Μπότσαρη - Νέα Παραλία (Θεσσαλονίκη - Δήμος)","Αναλήψεως 69, Θεσσαλονίκη 54644, Ελλάδα",5,1,1,1,Φυσικό αέριο,Γ,1974,2023,800,9e7b8fbd-3a11-423f-a582-3f18cd4c9dac,40.60675115,22.96054287,10,155.1052618,POINT (22.96054287 40.60675115),6444.761717,0.820988754,77.91924962,99
87,Διαμέρισμα,17154931,100000,25,"Καμάρα - Ροτόντα, Κέντρο Θεσσαλονίκης (Θεσσαλονίκη - Δήμος)","Εγνατία 134, Θεσσαλονίκη, Ελλάδα, Ελλάδα",1,1,1,1,Χωρίς θέρμανση,Δ,1968,1968,200,3909fc2f-2038-477b-bd04-618ff369b560,40.6387897,22.9385065,10,63.28271086,POINT (22.9385065 40.6387897),4980.257374,0.634427691,35.75028931,144
88,Διαμέρισμα,17149876,248000,110,"Μαλακοπή, Τούμπα (Θεσσαλονίκη - Δήμος)","Εμμανουήλ Φίλη 2, Πυλαία 543 52, Ελλάδα, Θεσσαλονίκη, Ελλάδα",1,1,1,1,Φυσικό αέριο,Γ,1987,,,4836056f-b76e-4d39-a4f0-6c3b4e088377,40.6075849,22.9843232,10,153.5281225,POINT (22.9843232 40.6075849),149927.7677,19.09907869,277.9884308,25
89,Διαμέρισμα,17136460,100000,25,"Καμάρα - Ροτόντα, Κέντρο Θεσσαλονίκης (Θεσσαλονίκη - Δήμος)","Εγνατία 134, Θεσσαλονίκη, Ελλάδα, Ελλάδα",1,1,1,1,Χωρίς θέρμανση,Δ,1968,1968,200,9efd43b4-14f7-4f5a-bf71-dfbacdda2486,40.6387897,22.9385065,10,63.28271086,POINT (22.9385065 40.6387897),4980.257374,0.634427691,35.75028931,144
90,Studio / Γκαρσονιέρα,17096840,110000,52,"Κάτω Τούμπα, Τούμπα (Θεσσαλονίκη - Δήμος)","Μέτρων 4, Θεσσαλονίκη 54453, Ελλάδα",5,1,1,1,Φυσικό αέριο,Γ,1977,2025,2500,e196b093-23d3-4b9e-b3b3-292733573db8,40.608116,22.9710512,11,139.8958799,POINT (22.9710512 40.608116),12376.42551,1.576614714,120.0548891,73
91,Διαμέρισμα,17066080,125000,47,"Μαρτίου, Βούλγαρη - Ντεπώ - Μαρτίου (Θεσσαλονίκη - Δήμος)","Αλεξανδρείας 64, Θεσσαλονίκη 546 45, Ελλάδα, Ελλάδα",1,1,1,1,Φυσικό αέριο,Δ,1973,2024,,b922be57-fa50-4cb1-836c-9b90fbf484ac,40.6419001,22.95463495,6,124.4435148,POINT (22.95463495 40.6419001),19472.27419,2.480544483,282.3022022,71
92,Studio / Γκαρσονιέρα,17063942,80000,28,"Ιπποκράτειο, Φάληρο - Ιπποκράτειο (Θεσσαλονίκη - Δήμος)","Ανδρέα Μιαούλη 27, Θεσσαλονίκη 546 42, Ελλάδα, Ελλάδα",2,1,1,1,Φυσικό αέριο,Δ,1961,2025,500,deb75591-1b0e-4ee8-b5a6-6e113b529102,40.6418274,22.9198028,3,140.8448135,POINT (22.9198028 40.6418274),0,0,189.2350084,15
93,Συγκρότημα διαμερισμάτων,17017355,1700000,470,Χαριλάου (Θεσσαλονίκη - Δήμος),"Θεοδ. Νάτσινα 32, Θεσσαλονίκη 542 49, Ελλάδα, Ελλάδα",3,,,,Φυσικό αέριο,Α,1980,2024,,88d5d738-f66c-4501-828e-0e1faccc0429,40.6044539,22.9686374,13,41.29838474,POINT (22.9686374 40.6044539),19461.61417,2.479186518,18.49649385,70
94,Διαμέρισμα,16965848,137907,88,"Αγία Τριάδα, Φάληρο - Ιπποκράτειο (Θεσσαλονίκη - Δήμος)","Αμαλίας 50, Θεσσαλονίκη, Ελλάδα, Ελλάδα",3,1,1,1,,,1987,,,3985bb5f-a945-4f84-997f-9fcea709bb26,40.6188765,22.9568707,3,258.4937558,POINT (22.9568707 40.6188765),21929.56187,2.79357476,155.1433868,51
95,Διαμέρισμα,16884821,290000,73,Κέντρο Θεσσαλονίκης (Θεσσαλονίκη - Δήμος),"Ερμού 63, Θεσσαλονίκη 546 23, Ελλάδα, Ελλάδα",4,1,1,1,Ρεύμα,Β,1960,2019,,8947acff-3123-4932-b81e-eec3a0b96d0d,40.630849,22.943632,6,80.39721994,POINT (22.943632 40.630849),10571.14287,1.346642403,67.84079821,219
96,Διαμέρισμα,16879190,92000,55,Ανάληψη - Μπότσαρη - Νέα Παραλία (Θεσσαλονίκη - Δήμος),"Δημήτρη Μητρόπουλου 11, Θεσσαλονίκη 546 42, Ελλάδα, Ελλάδα",,1,1,1,Φυσικό αέριο,Γ,1960,2024,,1d3b7344-f7ef-4f7d-bfae-767e75987522,40.631419,22.9512713,4,133.0918852,POINT (22.9512713 40.631419),35439.54281,4.51459144,87.30705251,208
97,Διαμέρισμα,16801168,115000,45,"Μαρτίου, Βούλγαρη - Ντεπώ - Μαρτίου (Θεσσαλονίκη - Δήμος)","Φιλελλήνων 42, Θεσσαλονίκη 542 48, Ελλάδα, Ελλάδα",1,1,1,,Φυσικό αέριο,Δ,1980,2024,,6df8cb03-b218-4f57-a9ac-0d6a8fa1bf57,40.6010736,22.9576015,7,82.51686139,POINT (22.9576015 40.6010736),25597.59393,3.260839991,21.68136405,77
98,Διαμέρισμα,16769009,250000,93,"Παπάφη, Τούμπα (Θεσσαλονίκη - Δήμος)","Νευροκοπίου , Θεσσαλονίκη 546 38, Ελλάδα, Ελλάδα",4,1,1,1,Φυσικό αέριο,Δ,1993,,,19695627-b931-40f2-83c0-09fc7635533c,40.6403167,22.9352716,10,116.9200166,POINT (22.9352716 40.6403167),15433.97984,1.966112081,73.61096678,98
99,Διαμέρισμα,16759104,510000,135,"Μαλακοπή, Τούμπα (Θεσσαλονίκη - Δήμος)","Στεφάνου Γρηγορίου 30-38, 543 52, Θεσσαλονίκη, Ελλάδα",8,1,2,1,Φυσικό αέριο,Α,1998,,9000,a7b3e626-10e5-4259-90ab-7f1a33f60ebb,40.6122273,22.9859658,10,96.3117596,POINT (22.9859658 40.6122273),2980.797168,0.379719385,104.0781618,18
100,Διαμέρισμα,16723159,160000,46,"Ιπποκράτειο, Φάληρο - Ιπποκράτειο (Θεσσαλονίκη - Δήμος)","Μάρκου Μπότσαρη, 546 44, Θεσσαλονίκη, Ελλάδα",2,1,1,1,Φυσικό αέριο,Α,2024,,,fef7bc75-5c54-4af6-989c-24f689a86762,40.607695,22.9634763,11,96.36794623,POINT (22.9634763 40.607695),5154.028908,0.656564192,27.76045834,93
101,Διαμέρισμα,16642349,175000,90,"Μαρτίου, Βούλγαρη - Ντεπώ - Μαρτίου (Θεσσαλονίκη - Δήμος)","Θάλητος 14, Θεσσαλονίκη 546 45, Ελλάδα, Ελλάδα",4,1,1,1,Χωρίς θέρμανση,Ζ,1972,,100,1cc1762e-057c-44cc-a2d6-4706be02494d,40.598184,22.9515057,6,69.22790675,POINT (22.9515057 40.598184),31078.77842,3.959080054,63.90658983,54
102,Studio / Γκαρσονιέρα,16625122,110000,21,"Βούλγαρη - Άγιος Ελευθέριος - Ντεπώ, Βούλγαρη - Ντεπώ - Μαρτίου (Θεσσαλονίκη - Δήμος)","25ης Μαρτίου  , Θεσσαλονίκη 546 45, Ελλάδα, Ελλάδα",1,,1,,Φυσικό αέριο,Δ,1964,2024,300,288014ce-3765-4398-8ef2-3ba0542b25b7,40.5992154,22.9533784,7,27.95280666,POINT (22.9533784 40.5992154),25117.97319,3.199741808,36.67899571,59
103,Studio / Γκαρσονιέρα,16610727,168000,53,Κέντρο Θεσσαλονίκης (Θεσσαλονίκη - Δήμος),"Δεσπεραί 38, Θεσσαλονίκη 546 21, Ελλάδα, Ελλάδα",5,,1,,Φυσικό αέριο,Γ,1965,2024,300,873c8252-e2dd-4703-965d-83daf0f876d3,40.6284437,22.9527072,5,155.7529514,POINT (22.9527072 40.6284437),65891.74181,8.393852459,87.75527599,166
105,Studio / Γκαρσονιέρα,16520916,115000,39,Βούλγαρη - Ντεπώ - Μαρτίου (Θεσσαλονίκη - Δήμος),"25ης Μαρτίου, Θεσσαλονίκη 546 45, Ελλάδα, Ελλάδα",1,1,1,1,Αυτόνομη,Β,1980,2024,500,c80f2db0-6f78-4ecb-9e61-9d15c4cd7792,40.5992154,22.9533784,7,27.95280666,POINT (22.9533784 40.5992154),25117.97319,3.199741808,36.67899571,59
106,Διαμέρισμα,16520869,115000,39,Βούλγαρη - Ντεπώ - Μαρτίου (Θεσσαλονίκη - Δήμος),"25ης Μαρτίου, Θεσσαλονίκη 546 45, Ελλάδα, Ελλάδα",1,1,1,1,Αυτόνομη,Β,1980,2024,500,e86d6dd3-8544-4d06-9d4a-d5ec27869beb,40.5992154,22.9533784,7,27.95280666,POINT (22.9533784 40.5992154),25117.97319,3.199741808,36.67899571,59
107,Studio / Γκαρσονιέρα,16485146,100000,52,Κέντρο Θεσσαλονίκης (Θεσσαλονίκη - Δήμος),"Στρατηγού Μακρυγιάννη 19, 546 35, Καμάρα, Θεσσαλονίκη, Ελλάδα",6,,2,,Φυσικό αέριο,Δ,1970,2016,,8fd3cbed-70bd-459a-974d-649d031e95d2,40.6337169,22.9502758,4,94.1257839,POINT (22.9502758 40.6337169),40854.64883,5.204413863,98.1073644,234
108,Διαμέρισμα,16476258,153000,47,"Κάτω Τούμπα, Τούμπα (Θεσσαλονίκη - Δήμος)","Κανάρη 43, Θεσσαλονίκη 54453, Ελλάδα",3,1,1,1,Φυσικό αέριο,Δ,1978,2024,700,9229da24-65ec-44e0-a267-fcf1604267ca,40.60707575,22.96886417,12,201.7714952,POINT (22.96886417 40.60707575),11990.50516,1.527452886,163.017267,78
109,Διαμέρισμα,16475812,155000,38,"Βούλγαρη - Άγιος Ελευθέριος - Ντεπώ, Βούλγαρη - Ντεπώ - Μαρτίου (Θεσσαλονίκη - Δήμος)","Μελά Ναταλίας 16, Θεσσαλονίκη 54646, Ελλάδα",2,1,1,1,Φυσικό αέριο,Δ,1964,2024,160,74b8e8c6-5a43-4cfe-ae97-6efe44fd04e7,40.5978897,22.95292844,6,95.38274399,POINT (22.95292844 40.5978897),25993.84714,3.311318107,143.2692757,55
110,Studio / Γκαρσονιέρα,16471032,140000,35,"Βούλγαρη - Άγιος Ελευθέριος - Ντεπώ, Βούλγαρη - Ντεπώ - Μαρτίου (Θεσσαλονίκη - Δήμος)","Λασκαράτου 19, Θεσσαλονίκη 54646, Ελλάδα",2,1,1,1,Φυσικό αέριο,Δ,1964,2024,150,6a550af1-e057-4e4c-ae71-06b7db2d4741,40.59811445,22.9542936,6,125.3030531,POINT (22.9542936 40.59811445),19717.7723,2.511818128,109.4073933,59
112,Studio / Γκαρσονιέρα,16411972,29000,40,"Παναγία Φανερωμένη, Ξηροκρήνη - Παναγία Φανερωμένη (Θεσσαλονίκη - Δήμος)","Αρχαιοτήτων 24, Θεσσαλονίκη 54632, Ελλάδα",6,1,1,1,Χωρίς θέρμανση,Η,1966,,3000,48b5f045-dbd0-4078-9f8e-cfad74bbd87c,40.6305865,22.9516674,4,32.78544094,POINT (22.9516674 40.6305865),33843.2132,4.31123735,21.68962148,199
113,Διαμέρισμα,16405298,125000,50,"Μαρτίου, Βούλγαρη - Ντεπώ - Μαρτίου (Θεσσαλονίκη - Δήμος)","Παπακυριαζή 8, Θεσσαλονίκη 54645, Ελλάδα",2,1,1,1,Φυσικό αέριο,Δ,1973,2024,450,d82e81cb-f4d4-48bd-886a-f834c92b7f1b,40.5994213,22.95208821,7,50.48524842,POINT (22.95208821 40.5994213),36950.76782,4.70710418,46.4831413,57
114,Διαμέρισμα,16276132,125000,33,"Παπάφη, Τούμπα (Θεσσαλονίκη - Δήμος)","Βαλτετσίου 18, Θεσσαλονίκη 54453, Ελλάδα",1,1,1,1,Φυσικό αέριο,Δ,1977,2024,740,3af47def-e839-48f9-93fd-61d4f4dfdb44,40.61276665,22.96959332,11,20.31659746,POINT (22.96959332 40.61276665),14286.07823,1.819882577,223.3164053,59
115,Διαμέρισμα,16260170,155000,55,Τούμπα (Θεσσαλονίκη - Δήμος),"Σερίφου 2, Θεσσαλονίκη 546 38, Ελλάδα, Ελλάδα",3,1,1,1,Φυσικό αέριο,,1973,2024,,2cacf237-4e3c-41ff-bb6c-db3ad20951bb,40.6403167,22.9352716,10,116.9200166,POINT (22.9352716 40.6403167),15433.97984,1.966112081,73.61096678,98
116,Studio / Γκαρσονιέρα,16235753,117000,35,"Δόξα, Τριανδρία - Δόξα (Θεσσαλονίκη - Δήμος)","Μεσολογγίου 33, Τριανδρία 55337, Θεσσαλονίκη, Ελλάδα",1,1,1,1,Φυσικό αέριο,Δ,1963,2024,7500,301b0377-fd6c-4420-9e4c-363f114bf803,40.62147375,22.97173712,6,203.4617877,POINT (22.97173712 40.62147375),3479.556864,0.443255651,251.78619,20
117,Διαμέρισμα,16216196,145000,62,"Άνω Τούμπα, Τούμπα (Θεσσαλονίκη - Δήμος)","Αγίας Μαρίνης, Θεσσαλονίκη 54351, Ελλάδα",3,1,1,1,Φυσικό αέριο,Δ,1977,2024,8500,70204d2e-2454-4131-898b-f30e832c27cd,40.6586893,22.9417546,4,138.868438,POINT (22.9417546 40.6586893),52752.20934,6.720026667,97.22992395,26
118,Διαμέρισμα,16202703,160000,45,"Μαρτίου, Βούλγαρη - Ντεπώ - Μαρτίου (Θεσσαλονίκη - Δήμος)","Λεωφόρος Βασιλίσσης Όλγας 140, Θεσσαλονίκη 54645, Ελλάδα",1,1,1,1,Φυσικό αέριο,Γ,1960,2024,300,4f975bfb-3577-425e-833f-c039e54a03be,40.6015825,22.95322089,7,35.77613343,POINT (22.95322089 40.6015825),46919.68281,5.977029657,77.47571335,66
119,Διαμέρισμα,15953289,159000,68,"Ιπποκράτειο, Φάληρο - Ιπποκράτειο (Θεσσαλονίκη - Δήμος)","Σόλωνος 3, Θεσσαλονίκη 546 42, Ελλάδα, Ελλάδα",2,1,1,1,Φυσικό αέριο,Γ,Υπό κατασκευή,2024,,c2205a06-6b33-41e4-be5b-784d8124a924,40.6117218,22.9611016,9,58.96321024,POINT (22.9611016 40.6117218),14808.93208,1.886488163,22.95597898,76
120,Διαμέρισμα,15877122,178000,40,"Αγία Σοφία, Κέντρο Θεσσαλονίκης (Θεσσαλονίκη - Δήμος)","Αγάπης 8, Θεσσαλονίκη 54622, Ελλάδα",2,1,1,1,Φυσικό αέριο,Δ,1958,2024,450,3817c186-710c-4271-ab0b-40dea6714290,40.63368005,22.94974587,5,98.21355793,POINT (22.94974587 40.63368005),29204.21845,3.720282606,127.9989479,238
121,Studio / Γκαρσονιέρα,15864065,125000,49,"ΔΕΘ - Πανεπιστήμια, Κέντρο Θεσσαλονίκης (Θεσσαλονίκη - Δήμος)","Ποδηλατόδρομος Θεσσαλονίκης, Θεσσαλονίκη 54636, Ελλάδα",2,,1,1,Φυσικό αέριο,Γ,2006,,600,043ddd85-8667-447c-910c-ffe0af675365,40.6274745,22.9642814,3,93.68892912,POINT (22.9642814 40.6274745),11536.13995,1.469571968,339.2305539,28
122,Studio / Γκαρσονιέρα,15818812,70000,30,"Παναγία Φανερωμένη, Ξηροκρήνη - Παναγία Φανερωμένη (Θεσσαλονίκη - Δήμος)","Μπορού 8, Θεσσαλονίκη 546 32, Ελλάδα, Ελλάδα",4,,1,,Αυτόνομη,Δ,1974,2024,,bcd52bf4-4f61-44db-85f5-b4f85f517e39,40.6456989,22.9373571,14,71.21857409,POINT (22.9373571 40.6456989),108126.5718,13.77408558,158.8752586,70
123,Studio / Γκαρσονιέρα,15758957,125000,38,"Δόξα, Τριανδρία - Δόξα (Θεσσαλονίκη - Δήμος)","Εύβοιας 9, Θεσσαλονίκη 546 36, Ελλάδα, Ελλάδα",2,1,1,1,Φυσικό αέριο,Α,1973,2025,,a94e74a8-3d3b-43d2-bbc4-698e4d005fbf,40.6341992,22.9439935,7,59.61908861,POINT (22.9439935 40.6341992),11605.54765,1.478413713,62.4886548,245
124,Studio / Γκαρσονιέρα,15758950,125000,35,"Δόξα, Τριανδρία - Δόξα (Θεσσαλονίκη - Δήμος)","Εύβοιας 9, Θεσσαλονίκη 546 36, Ελλάδα, Ελλάδα",2,1,1,1,Φυσικό αέριο,Α,1973,2025,,7b663326-82d3-40b3-b7e7-cb235b0db3bb,40.6341992,22.9439935,7,59.61908861,POINT (22.9439935 40.6341992),11605.54765,1.478413713,62.4886548,245
125,Studio / Γκαρσονιέρα,15385565,165000,56,"Νέα Ελβετία, Χαριλάου (Θεσσαλονίκη - Δήμος)","Παντελή Χορν 0, Θεσσαλονίκη 542 49, Ελλάδα, Ελλάδα",4,,1,,Φυσικό αέριο,Β,Υπό κατασκευή,,2000,6729ee7c-3d41-4753-a754-b48f2a1f83b8,40.6000139,22.967778,12,266.5022901,POINT (22.967778 40.6000139),30099.06701,3.834276052,116.3068121,68
126,Διαμέρισμα,15036626,300000,92,"Άνω Τούμπα, Τούμπα (Θεσσαλονίκη - Δήμος)","Στρατηγού Παπουλά Αναστ. 22-24, 543 51, Θεσσαλονίκ, Θεσσαλονίκη, Ελλάδα",6,1,1,1,Φυσικό αέριο,Α,2023,,,18fe5e4a-6e52-4b17-8991-97bad5d9f237,40.6156209,22.9750671,14,91.98416327,POINT (22.9750671 40.6156209),19775.91425,2.519224746,37.85695167,36
127,Studio / Γκαρσονιέρα,14686007,105000,43,"Παπάφη, Τούμπα (Θεσσαλονίκη - Δήμος)","Τροίας 3, Θεσσαλονίκη 54639, Ελλάδα",1,1,1,1,Φυσικό αέριο,Δ,1968,2023,1800,5878eec3-59d7-481d-b334-41922d826a5e,40.6194609,22.9624684,6,62.665113,POINT (22.9624684 40.6194609),6408.565838,0.816377814,272.6322795,56
128,Διαμέρισμα,9292292,59000,58,"Μαρτίου, Βούλγαρη - Ντεπώ - Μαρτίου (Θεσσαλονίκη - Δήμος)","Πέτρου Συνδίκα 62, Θεσσαλονίκη 542 48, Ελλάδα, Ελλάδα",,1,1,1,Ρεύμα,Β,1970,2015,900,34b0a250-7d9e-4dbc-aabf-80cc7c99c3e1,40.6057693,22.9639417,11,77.45616882,POINT (22.9639417 40.6057693),6413.870236,0.817053533,73.37836794,93
129,Διαμέρισμα,1571323,60000,75,"Βαρδάρης, Βαρδάρης - Λαχανόκηποι (Θεσσαλονίκη - Δήμος)","ΒΑΡΔΑΡΗΣ, Θεσσαλονίκη, Ελλάδα",5,1,1,1,Φυσικό αέριο,Δ,1965,,1000,fa796194-7f8a-473c-ac8a-621f8264d723,40.6403167,22.9352716,10,116.9200166,POINT (22.9352716 40.6403167),15433.97984,1.966112081,73.61096678,98
130,Studio / Γκαρσονιέρα,16896870,137000,29,"Μπότσαρη, Ανάληψη - Μπότσαρη - Νέα Παραλία (Θεσσαλονίκη - Δήμος)","28ης Οκτωβρίου 50, Θεσσαλονίκη 54642, Ελλάδα",3,1,1,1,Φυσικό αέριο,Γ,1969,2024,650,7f26225e-b026-4519-b40c-f172bb1c47f1,40.64171625,22.91342454,3,127.8284628,POINT (22.91342454 40.64171625),0,0,521.0452924,9
131,Studio / Γκαρσονιέρα,16896018,95000,25,Ανάληψη - Μπότσαρη - Νέα Παραλία (Θεσσαλονίκη - Δήμος),"Μακεδονίας, 546 42, Θεσσαλονίκη, Ελλάδα",2,1,1,,Φυσικό αέριο,Ε,1973,2024,850,2354159e-d4db-4724-8ce7-35ed1759946b,40.6403167,22.9352716,10,116.9200166,POINT (22.9352716 40.6403167),15433.97984,1.966112081,73.61096678,98
132,Διαμέρισμα,16949481,177000,63,"Ιπποκράτειο, Φάληρο - Ιπποκράτειο (Θεσσαλονίκη - Δήμος)","Παπαναστασίου Αλέξανδρου 77, Θεσσαλονίκη 54453, Ελλάδα",2,1,1,1,Φυσικό αέριο,Β,1976,2024,,48ae8334-b966-466b-821c-013761246e35,40.5732872,22.9534578,1,94.23376607,POINT (22.9534578 40.5732872),65208.37924,8.306799903,106.9222851,25
133,Μεζονέτα,16846681,470000,130,"Κάτω Τούμπα, Τούμπα (Θεσσαλονίκη - Δήμος)","Αναγνωστάκη Μαν. 1, Θεσσαλονίκη 54250, Ελλάδα",1,1,3,1,Φυσικό αέριο,Α,2025,,,ec297ae5-9796-458c-9212-c29f6b0524d1,40.6138703,22.97236555,14,137.0421928,POINT (22.97236555 40.6138703),27404.6904,3.491043363,150.3579655,50
134,Διαμέρισμα,15901963,170000,70,"Κάτω Τούμπα, Τούμπα (Θεσσαλονίκη - Δήμος)","Δορυλαίου 30, Θεσσαλονίκη 54454, Ελλάδα",4,1,1,1,Φυσικό αέριο,Γ,1980,2024,4000,15315873-c470-483a-9693-2f41c587d302,40.6050541,22.97833484,12,302.9857331,POINT (22.97833484 40.6050541),44704.65508,5.694860519,370.268179,52
135,Διαμέρισμα,15526559,160000,59,Ανάληψη - Μπότσαρη - Νέα Παραλία (Θεσσαλονίκη - Δήμος),"ΠΑΤΡΩΝ 9, Θεσσαλονίκη, Ελλάδα",2,1,1,1,Φυσικό αέριο,,Υπό κατασκευή,,500,2d650ff4-639b-4e39-ae3c-15d67cabf25d,38.2589296,21.7391011,0,270562.3984,POINT (21.7391011 38.2589296),0,0,275187.7406,0
136,Διαμέρισμα,17127167,250000,70,"Νέα Ελβετία, Χαριλάου (Θεσσαλονίκη - Δήμος)","Μαρίνου Σιγάλα 14, Θεσσαλονίκη 542 48, Ελλάδα, Ελλάδα",2,1,1,1,Φυσικό αέριο,Α,1980,,,76043f58-7095-4bfc-bf30-e79d7c0cfe4a,40.5952383,22.9616813,6,105.2812041,POINT (22.9616813 40.5952383),12904.13467,1.643838811,66.32023419,49
137,Διαμέρισμα,17080309,168000,56,"Κάτω Τούμπα, Τούμπα (Θεσσαλονίκη - Δήμος)","Διογένους, 22, Θεσσαλονίκη Ελλάδα, 54453, Ελλάδα",1,1,1,1,Φυσικό αέριο,Δ,1982,2025,1000,8be836dd-7ac2-4b45-84ff-3df185444bdc,40.6292052,22.9500265,4,76.2794021,POINT (22.9500265 40.6292052),49037.44801,6.246808664,46.46843629,196
138,Studio / Γκαρσονιέρα,16995511,168000,38,"Καμάρα - Ροτόντα, Κέντρο Θεσσαλονίκης (Θεσσαλονίκη - Δήμος)","Σβώλου Αλεξάνδρου 19, Θεσσαλονίκη 54622, Ελλάδα",6,1,1,1,Φυσικό αέριο,Γ,1959,2025,500,e52d3e03-ee80-4216-b701-ae047b9f8779,40.6766896,22.802169,0,103.8056201,POINT (22.802169 40.6766896),0,0,598.8749496,8
139,Συγκρότημα διαμερισμάτων,16967394,89000,64,"Παναγία Φανερωμένη, Ξηροκρήνη - Παναγία Φανερωμένη (Θεσσαλονίκη - Δήμος)","Θερίσου 11, Θεσσαλονίκη 54632, Ελλάδα",,2,2,2,Ρεύμα,Β,,,,84903afc-6699-4384-b286-36170b77d517,40.64349525,22.94364656,15,122.5014338,POINT (22.94364656 40.64349525),41226.88927,5.251833028,323.1604944,98
140,Διαμέρισμα,16966521,189000,80,"Οσία Ξένη, Χαριλάου (Θεσσαλονίκη - Δήμος)","Αντ. Δανιόλου 65, Θεσσαλονίκη 542 49, Ελλάδα, Ελλάδα",3,1,1,1,Φυσικό αέριο,Δ,1968,,,da397830-2ded-4c48-90e0-fa1b1eefc671,40.6015089,22.9684957,12,165.5128281,POINT (22.9684957 40.6015089),25886.72473,3.29767194,115.4255195,67
141,Διαμέρισμα,16833990,335000,110,"Νέα Παραλία, Ανάληψη - Μπότσαρη - Νέα Παραλία (Θεσσαλονίκη - Δήμος)","Λεωφόρος Βασιλίσσης Όλγας 52, Θεσσαλονίκη 54642, Ελλάδα",5,,1,1,Φυσικό αέριο,Ε,,,,3c396044-1a3a-4b4d-a3de-a81b55fc3967,40.6080078,22.9536251,5,73.16511467,POINT (22.9536251 40.6080078),57229.33408,7.290361029,35.95596883,67
142,Studio / Γκαρσονιέρα,16810155,110000,39,"Ιπποκράτειο, Φάληρο - Ιπποκράτειο (Θεσσαλονίκη - Δήμος)","Γαμβέττα 67-73, 546 42, Θεσσαλονίκη, Ελλάδα",2,1,1,1,Φυσικό αέριο,Δ,1969,2024,,d0c16d41-6eab-442d-bfc1-83869a1e6ee8,40.6097307,22.9601863,10,176.0870499,POINT (22.9601863 40.6097307),10289.32737,1.310742341,208.0469889,89
143,Studio / Γκαρσονιέρα,16601774,148000,44,"Άνω Τούμπα, Τούμπα (Θεσσαλονίκη - Δήμος)","Ολύνθου 11, Θεσσαλονίκη 543 51, Ελλάδα, Ελλάδα",2,1,1,1,Φυσικό αέριο,Β,1980,,,fe90ddaa-a579-4a1f-adff-9fe47ea52d45,40.6365003,22.94837792,6,186.3390103,POINT (22.94837792 40.6365003),5516.924679,0.702792953,93.31885939,240
144,Διαμέρισμα,16430975,100000,100,"Παναγία Φανερωμένη, Ξηροκρήνη - Παναγία Φανερωμένη (Θεσσαλονίκη - Δήμος)","Σύλλης 5, Θεσσαλονίκη 54632, Ελλάδα",4,1,1,1,Φυσικό αέριο,Α,1963,,,84e0c7f5-c843-4ebe-a26c-cf9aabf94268,40.6274745,22.9642814,3,93.68892912,POINT (22.9642814 40.6274745),11536.13995,1.469571968,339.2305539,28
145,Studio / Γκαρσονιέρα,16105621,125000,42,"Μαρτίου, Βούλγαρη - Ντεπώ - Μαρτίου (Θεσσαλονίκη - Δήμος)","Συνδίκα Πέτρου 43, Θεσσαλονίκη 54643, Ελλάδα",2,,1,1,Φυσικό αέριο,Δ,1965,2024,,c61b5931-22fd-4968-95f1-b58abbb280b2,40.6331916,22.9427856,7,118.5734008,POINT (22.9427856 40.6331916),9757.037246,1.242934681,47.40976609,235
147,Διαμέρισμα,16314162,1570000,280,"Αγία Σοφία, Κέντρο Θεσσαλονίκης (Θεσσαλονίκη - Δήμος)","Πλατεία Αγίας Σοφίας, 546 22, Θεσσαλονίκη, Ελλάδα",2,1,4,1,Ρεύμα,Γ,1935,2023,500,1c1b00fc-ed86-4b2b-b4ac-22584f4f5cb5,40.63234,22.9449476,7,91.64674275,POINT (22.9449476 40.63234),16952.56802,2.159562805,18.61958033,239
148,Διαμέρισμα,16195425,180000,64,"Μαρτίου, Βούλγαρη - Ντεπώ - Μαρτίου (Θεσσαλονίκη - Δήμος)","Καρυωτάκη, Θεσσαλονίκη Ελλάδα, 54645, Ελλάδα",1,1,1,1,Φυσικό αέριο,Γ,1978,2024,500,f5804c40-e967-486b-9f74-ef399cec6ebe,40.6027968,22.9514084,7,156.6289509,POINT (22.9514084 40.6027968),47326.98996,6.028915919,125.0854262,58
149,Διαμέρισμα,15871113,270000,70,"Νέα Παραλία, Ανάληψη - Μπότσαρη - Νέα Παραλία (Θεσσαλονίκη - Δήμος)","Λεωφόρος Βασιλίσσης Όλγας 103, Θεσσαλονίκη 54643, Ελλάδα",5,1,1,1,Φυσικό αέριο,Β,1975,2024,200,aa9c1e83-7195-480b-9ee6-b368b5bcc1ac,40.6075237,22.9535295,6,21.72355537,POINT (22.9535295 40.6075237),47577.03663,6.060768998,90.14970452,72
150,Διαμέρισμα,15526485,150000,59,Ανάληψη - Μπότσαρη - Νέα Παραλία (Θεσσαλονίκη - Δήμος),"ΠΑΤΡΩΝ 9, Θεσσαλονίκη, Ελλάδα",1,1,1,1,Φυσικό αέριο,,Υπό κατασκευή,,500,d0052b98-1cbb-4855-85e7-506725c16f89,38.2589296,21.7391011,0,270562.3984,POINT (21.7391011 38.2589296),0,0,275187.7406,0
151,Διαμέρισμα,15302656,108000,38,"Κάτω Τούμπα, Τούμπα (Θεσσαλονίκη - Δήμος)","Καισάρειας Ιωάννου, Θεσσαλονίκη Ελλάδα, 54453, Ελλάδα",1,1,1,1,Φυσικό αέριο,Γ,1966,2024,4000,cfb12d49-8745-4d94-8470-961723105305,40.6305256,22.9523753,4,82.66609783,POINT (22.9523753 40.6305256),36981.32921,4.710997351,55.75121767,194
152,Studio / Γκαρσονιέρα,17021667,45000,37,"Ξηροκρήνη, Ξηροκρήνη - Παναγία Φανερωμένη (Θεσσαλονίκη - Δήμος)","Πετμεζά Νικολάου 1, Θεσσαλονίκη 54629, Ελλάδα",3,1,1,,Χωρίς θέρμανση,Η,1967,,1500,9074dcee-9fc2-4521-ba90-3ee23bab28c7,40.6479929,22.93066,11,52.72459773,POINT (22.93066 40.6479929),5746.873811,0.732085836,60.38769361,48
153,Studio / Γκαρσονιέρα,16967544,128000,42,"40 Εκκλησιές, 40 Εκκλησιές - Ευαγγελίστρια (Θεσσαλονίκη - Δήμος)","Πηγής, 11, Θεσσαλονίκη Ελλάδα, 54636, Ελλάδα",,1,1,1,Ρεύμα,Δ,1976,2025,1200,2a29c645-1c75-454e-a7ab-0f35be8c3169,40.6274745,22.9642814,3,93.68892912,POINT (22.9642814 40.6274745),11536.13995,1.469571968,339.2305539,28
154,Studio / Γκαρσονιέρα,16758759,85000,33,Ανάληψη - Μπότσαρη - Νέα Παραλία (Θεσσαλονίκη - Δήμος),"Ιατρού Ζάννα 13, Θεσσαλονίκη 546 43, Ελλάδα, Ελλάδα",3,1,1,1,,,1968,2025,500,71419286-5518-4a5f-a7b6-d5de314320e9,40.6080208,22.9561015,6,160.1816762,POINT (22.9561015 40.6080208),18281.52298,2.32885643,161.6431048,77
155,Studio / Γκαρσονιέρα,16712673,104000,41,"Μαρτίου, Βούλγαρη - Ντεπώ - Μαρτίου (Θεσσαλονίκη - Δήμος)","Μαντινείας 83, Θεσσαλονίκη 54248, Ελλάδα",2,1,1,1,Φυσικό αέριο,Η,1965,2024,1700,b0100205-fb3b-4157-a34b-aeb545219602,40.60329945,22.9635857,11,52.6400974,POINT (22.9635857 40.60329945),7498.273891,0.955194126,36.30991565,95
156,Studio / Γκαρσονιέρα,16712608,104000,41,"Ανάληψη, Ανάληψη - Μπότσαρη - Νέα Παραλία (Θεσσαλονίκη - Δήμος)","Μαντινείας 57, Θεσσαλονίκη 54644, Ελλάδα",2,1,1,1,Φυσικό αέριο,Η,1965,2024,1700,25ecfb34-fcb1-4088-85d5-9ab956755cdc,40.6070568,22.96472071,11,130.0724122,POINT (22.96472071 40.6070568),5567.257086,0.709204724,95.75952577,86
157,Studio / Γκαρσονιέρα,16645612,165000,50,"Μπότσαρη, Ανάληψη - Μπότσαρη - Νέα Παραλία (Θεσσαλονίκη - Δήμος)","Αρτέμιδος 33, 546 44, Θεσσαλονίκη, Ελλάδα",8,1,1,1,Φυσικό αέριο,Α,Υπό κατασκευή,,700,783d1f56-2bec-405e-aeb4-daecb96716f7,40.6072095,22.9649566,11,160.2396249,POINT (22.9649566 40.6072095),5567.257086,0.709204724,127.0258906,86
158,Studio / Γκαρσονιέρα,16645587,150000,50,"Μπότσαρη, Ανάληψη - Μπότσαρη - Νέα Παραλία (Θεσσαλονίκη - Δήμος)","Αρτέμιδος 33, 546 44, Θεσσαλονίκη, Ελλάδα",6,1,1,1,Φυσικό αέριο,Α,Υπό κατασκευή,,700,3f58af01-84f9-4fa0-a3d7-3537698cb10f,40.6072095,22.9649566,11,160.2396249,POINT (22.9649566 40.6072095),5567.257086,0.709204724,127.0258906,86
159,Studio / Γκαρσονιέρα,16645565,130000,49,"Μπότσαρη, Ανάληψη - Μπότσαρη - Νέα Παραλία (Θεσσαλονίκη - Δήμος)","Αρτέμιδος 33, 546 44, Θεσσαλονίκη, Ελλάδα",1,1,1,1,Φυσικό αέριο,Α,Υπό κατασκευή,,700,b8728458-306e-4529-b209-059eb3b7c81b,40.6072095,22.9649566,11,160.2396249,POINT (22.9649566 40.6072095),5567.257086,0.709204724,127.0258906,86
160,Studio / Γκαρσονιέρα,16644724,137000,40,"Καμάρα - Ροτόντα, Κέντρο Θεσσαλονίκης (Θεσσαλονίκη - Δήμος)","Ευριπίδου 6, 546 35, Θεσσαλονίκη, Ελλάδα",2,1,1,1,Ρεύμα,Ε,1953,2024,900,f9db40f7-395d-4afb-b012-31525833ae98,40.62504055,22.95394986,1,50.17823825,POINT (22.95394986 40.62504055),180299.0256,22.96802873,65.67457745,123
161,Studio / Γκαρσονιέρα,16003158,40000,42,"Καμάρα - Ροτόντα, Κέντρο Θεσσαλονίκης (Θεσσαλονίκη - Δήμος)","Ἁγ. Δημητρίου 158, Θεσσαλονίκη 546 35, Ελλάδα, Ελλάδα",,1,1,1,Χωρίς θέρμανση,,1968,,,c3e3c4b2-7ef7-4bc0-8f36-a27fc7127fe9,40.63219905,22.95180425,4,120.2151151,POINT (22.95180425 40.63219905),34105.75742,4.344682474,32.64192932,210
162,Μονοκατοικία,15776409,440000,440,"Βούλγαρη - Άγιος Ελευθέριος - Ντεπώ, Βούλγαρη - Ντεπώ - Μαρτίου (Θεσσαλονίκη - Δήμος)","25ης Μαρτίου, Θεσσαλονίκη, Ελλάδα",,1,1,1,Ρεύμα,,1930,,1500,d008b1d2-6d9c-4af8-8d0a-0382c1c8d06f,40.6021689,22.9641306,10,114.541097,POINT (22.9641306 40.6021689),7856.160089,1.000784725,37.41124865,88
163,Διαμέρισμα,14445888,105000,80,"Βαρδάρης, Βαρδάρης - Λαχανόκηποι (Θεσσαλονίκη - Δήμος)","Αγίου Δημητρίου 14, Θεσσαλονίκη 54630, Ελλάδα",2,1,1,1,Πετρέλαιο,Ζ,1979,2000,1200,5f91f17c-4f21-4c99-aac1-527c6a54f253,40.63767475,22.95620789,3,128.7084855,POINT (22.95620789 40.63767475),54024.16225,6.882058886,170.1374302,119
164,Μεζονέτα,14223019,430000,148,"Μαλακοπή, Τούμπα (Θεσσαλονίκη - Δήμος)","Σεμέλης, 25, Θεσσαλονίκη Ελλάδα, 54352, Ελλάδα",8,1,1,1,Φυσικό αέριο,Α,Υπό κατασκευή,,2800,d9fd67b1-e6a2-4cba-a2f5-186da26732e2,40.6328134,22.9353932,5,168.3096808,POINT (22.9353932 40.6328134),0,0,76.80060064,127
165,Μεζονέτα,13453183,440000,149,"Άνω Τούμπα, Τούμπα (Θεσσαλονίκη - Δήμος)","Ιφιγενείας 7, 543 52, Θεσσαλονίκη, Ελλάδα",5,1,1,1,Φυσικό αέριο,Α,2023,,25,858e8a74-f076-486f-839f-cb03d79fa8c8,40.6306016,22.9443415,5,41.46718413,POINT (22.9443415 40.6306016),16628.22009,2.118244598,45.79301606,223
166,Μεζονέτα,13059016,290000,104,"Μπότσαρη, Ανάληψη - Μπότσαρη - Νέα Παραλία (Θεσσαλονίκη - Δήμος)","Ορέστου 38, 546 42, Θεσσαλονίκη, Ελλάδα",7,1,1,1,Φυσικό αέριο,Α,Υπό κατασκευή,,900,f68d282c-054a-4da6-9970-faca9ecba8b9,40.6094599,22.95874,8,134.534903,POINT (22.95874 40.6094599),12520.30406,1.594943192,160.275637,79
167,Μεζονέτα,13059009,305000,110,"Μπότσαρη, Ανάληψη - Μπότσαρη - Νέα Παραλία (Θεσσαλονίκη - Δήμος)","Ορέστου 38, 546 42, Θεσσαλονίκη, Ελλάδα",7,1,1,1,Φυσικό αέριο,Α,Υπό κατασκευή,,900,3c44a423-ba88-4666-98d3-3433e7adbcea,40.6094599,22.95874,8,134.534903,POINT (22.95874 40.6094599),12520.30406,1.594943192,160.275637,79
168,Διαμέρισμα,16577558,137000,35,Φάληρο - Ιπποκράτειο (Θεσσαλονίκη - Δήμος),"Φάληρο, Θεσσαλονίκη, Ελλάδα",3,,1,,Φυσικό αέριο,Γ,1968,2024,400,cc9a4848-6e22-4d08-9114-e8b1e7ab04ca,40.6403167,22.9352716,10,116.9200166,POINT (22.9352716 40.6403167),15433.97984,1.966112081,73.61096678,98
169,Διαμέρισμα,6430468,188000,50,"Λευκός Πύργος, Κέντρο Θεσσαλονίκης (Θεσσαλονίκη - Δήμος)","Εθνικής Αμύνης 7, Θεσσαλονίκη 54621, Ελλάδα",6,1,1,1,Φυσικό αέριο,Γ,1970,2022,,8a960dbc-1142-4a29-9b4e-3eaee42d906f,40.6329844,22.9551117,4,112.1423381,POINT (22.9551117 40.6329844),87635.21403,11.16372153,131.1377694,170
170,Διαμέρισμα,17117314,240000,90,"Αγία Τριάδα, Φάληρο - Ιπποκράτειο (Θεσσαλονίκη - Δήμος)","Λεωφόρος Βασιλίσσης Όλγας 29, Θεσσαλονίκη 54641, Ελλάδα",3,1,2,1,Φυσικό αέριο,Δ,1970,2024,,6a45a825-873e-4a99-9660-309c9917629d,40.6150665,22.95487004,4,128.3328251,POINT (22.95487004 40.6150665),75129.48868,9.570635501,113.3847751,58
171,Διαμέρισμα,17024256,109000,64,"Μαρτίου, Βούλγαρη - Ντεπώ - Μαρτίου (Θεσσαλονίκη - Δήμος)","Γαμβέτα 142, Θεσσαλονίκη 54248, Ελλάδα",1,1,1,1,Φυσικό αέριο,Ζ,1973,,2000,576d665c-7c77-403f-8c94-dafcf74cd7f1,40.6025254,22.96386606,11,127.0099099,POINT (22.96386606 40.6025254),7945.380239,1.012150349,34.77558291,93
172,Διαμέρισμα,16925555,395000,125,"Αγία Σοφία, Κέντρο Θεσσαλονίκης (Θεσσαλονίκη - Δήμος)","Μητροπολίτου Ιωσήφ 14, Θεσσαλονίκη 54622, Ελλάδα",1,1,1,1,Φυσικό αέριο,Γ,1990,2005,250,e014458e-3ac1-44dd-96eb-9b913e8a7605,40.6299374,22.9458798,4,29.94713459,POINT (22.9458798 40.6299374),24156.73126,3.077290606,91.93372832,222
173,Διαμέρισμα,16797822,170000,92,"Μαρτίου, Βούλγαρη - Ντεπώ - Μαρτίου (Θεσσαλονίκη - Δήμος)","Μαυροκορδάτου 3-13, 546 45, Θεσσαλονίκη, Ελλάδα",7,1,1,1,Φυσικό αέριο,Η,1980,2010,,89710d17-7e88-449e-832c-50ee8b69b658,40.5993993,22.95298585,7,69.42327483,POINT (22.95298585 40.5993993),30953.46495,3.943116555,43.8501791,59
174,Studio / Γκαρσονιέρα,15867365,69000,23,"Ιπποκράτειο, Φάληρο - Ιπποκράτειο (Θεσσαλονίκη - Δήμος)","Βέλλιου, 6, Θεσσαλονίκη Ελλάδα, 54642, Ελλάδα",5,1,1,1,Φυσικό αέριο,Ε,1975,2024,1000,33f9c7fa-523c-43c6-b5f2-a0bb3e3b0478,40.62504055,22.95394986,1,50.17823825,POINT (22.95394986 40.62504055),180299.0256,22.96802873,65.67457745,123
175,Διαμέρισμα,15441833,158000,53,"Αγία Τριάδα, Φάληρο - Ιπποκράτειο (Θεσσαλονίκη - Δήμος)","Βελισσάριου 46, Θεσσαλονίκη 54640, Ελλάδα",4,1,1,1,Φυσικό αέριο,Δ,1965,2024,,65e098ea-fe60-471a-82e8-7ae6572739be,40.61757425,22.95706415,3,183.1849708,POINT (22.95706415 40.61757425),17276.9239,2.200882026,175.561622,52
176,Studio / Γκαρσονιέρα,15149865,52000,40,"Βαρδάρης, Βαρδάρης - Λαχανόκηποι (Θεσσαλονίκη - Δήμος)","Φιντίου, 16, Θεσσαλονίκη Ελλάδα, 54627, Ελλάδα",5,1,1,1,Ρεύμα,Η,1965,2018,500,4551edda-513e-4e58-b397-27b66e636a5a,40.64171625,22.91342454,3,127.8284628,POINT (22.91342454 40.64171625),0,0,521.0452924,9
177,Studio / Γκαρσονιέρα,15064295,72000,44,"Άνω Τούμπα, Τούμπα (Θεσσαλονίκη - Δήμος)","Στοβαίου 19, Θεσσαλονίκη 543 51, Ελλάδα, Ελλάδα",,1,1,1,Αυτόνομη,Β,1970,,,1bebb051-31ff-4d3e-918f-c7b464b29fb7,40.6365003,22.94837792,6,186.3390103,POINT (22.94837792 40.6365003),5516.924679,0.702792953,93.31885939,240
178,Studio / Γκαρσονιέρα,13559290,110000,43,"Ιπποκράτειο, Φάληρο - Ιπποκράτειο (Θεσσαλονίκη - Δήμος)","Μητρόπουλου Δημητρίου 48, Θεσσαλονίκη 54644, Ελλάδα",4,1,1,1,Φυσικό αέριο,,1966,2024,1800,a58b110b-c20b-4337-98ba-52bae1aa661b,40.60952915,22.96440941,10,115.810985,POINT (22.96440941 40.60952915),8865.736386,1.12939317,174.2380456,87
179,Διαμέρισμα,16611151,185000,107,"Διοικητήριο, Κέντρο Θεσσαλονίκης (Θεσσαλονίκη - Δήμος)","Κασσάνδρου, 14, Θεσσαλονίκη Ελλάδα, 54632, Ελλάδα",3,1,1,1,Φυσικό αέριο,Δ,1985,,1500,1a867aa5-df04-4542-b7c2-41f8b2014d63,40.6274745,22.9642814,3,93.68892912,POINT (22.9642814 40.6274745),11536.13995,1.469571968,339.2305539,28
180,Διαμέρισμα,16580334,220000,96,"Κάτω Τούμπα, Τούμπα (Θεσσαλονίκη - Δήμος)","Πυλαίας 116, Θεσσαλονίκη 54454, Ελλάδα",2,1,1,1,Ρεύμα,Β,1987,,5000,e06b7ec6-7912-4bda-a336-a7eab97fab61,40.6067246,22.9811361,10,8.971936212,POINT (22.9811361 40.6067246),118642.4422,15.11368691,281.2104122,40
181,Studio / Γκαρσονιέρα,15949208,68000,52,"Άνω Τούμπα, Τούμπα (Θεσσαλονίκη - Δήμος)","Μαρώνειας , Θεσσαλονίκη 543 51, Ελλάδα, Ελλάδα",,1,1,1,Αυτόνομη,Γ,1975,2023,,bdfe16d5-4aa0-4077-9dc2-6328d43e832b,40.6403167,22.9352716,10,116.9200166,POINT (22.9352716 40.6403167),15433.97984,1.966112081,73.61096678,98
182,Studio / Γκαρσονιέρα,15642486,105000,35,"Μπότσαρη, Ανάληψη - Μπότσαρη - Νέα Παραλία (Θεσσαλονίκη - Δήμος)","Δελφών 87, Θεσσαλονίκη 54644, Ελλάδα",5,1,1,1,Φυσικό αέριο,Δ,1968,2024,300,980f8d64-8d64-4121-9080-9a6010904e78,40.60819845,22.96510882,11,89.55232926,POINT (22.96510882 40.60819845),4546.783985,0.579208151,116.7936703,84
183,Studio / Γκαρσονιέρα,17097052,105000,28,"Νέα Παραλία, Ανάληψη - Μπότσαρη - Νέα Παραλία (Θεσσαλονίκη - Δήμος)","Ανδρούτσου Οδυσσέα 23, Θεσσαλονίκη 54643, Ελλάδα",4,1,1,1,Φυσικό αέριο,Γ,1963,2025,40,bac94088-ab5a-4789-9a31-61f6c2aa15c6,40.6925261,22.9557536,0,247.702837,POINT (22.9557536 40.6925261),9253.073789,1.178735514,877.2513526,2
184,Διαμέρισμα,17071140,129000,86,Κέντρο Θεσσαλονίκης (Θεσσαλονίκη - Δήμος),"Σακελλαρίου 3, Θεσσαλονίκη 546 33, Ελλάδα, Ελλάδα",2,1,1,1,Φυσικό αέριο,Η,1968,,,53968199-38bd-4ac4-8639-36a81dc85782,40.6410223,22.9476657,13,139.1553633,POINT (22.9476657 40.6410223),4801.525825,0.611659341,128.6642055,146
185,Διαμέρισμα,17058340,160000,80,"Μαρτίου, Βούλγαρη - Ντεπώ - Μαρτίου (Θεσσαλονίκη - Δήμος)","Μαντινείας, 58, Θεσσαλονίκη Ελλάδα, 54248, Ελλάδα",4,1,1,1,Φυσικό αέριο,Β,1970,,700,929fdf84-972b-432c-9544-a777a03839fa,40.60490115,22.96258222,12,175.2884472,POINT (22.96258222 40.60490115),6235.119666,0.79428276,182.9378204,97
186,Διαμέρισμα,17057911,135000,60,Κέντρο Θεσσαλονίκης (Θεσσαλονίκη - Δήμος),"Στρ. Δουμπιώτη 20, Θεσσαλονίκη 546 32, Ελλάδα, Ελλάδα",2,,1,1,Φυσικό αέριο,Δ,1968,2017,,58948ad2-5a78-46f1-9ab8-149e74763273,40.6428546,22.9417537,11,30.76282429,POINT (22.9417537 40.6428546),38091.33145,4.852398911,173.0375128,115
187,Διαμέρισμα,17023727,85000,75,"Σταθμός ΟΣΕ, Βαρδάρης - Λαχανόκηποι (Θεσσαλονίκη - Δήμος)","Μπεντζέλου Ι. 6, Θεσσαλονίκη 54627, Ελλάδα",3,1,1,1,Φυσικό αέριο,Β,1968,,,5de711d3-3b16-45e7-9cb7-e5d4b195496e,40.6308969,22.9440765,6,30.91853231,POINT (22.9440765 40.6308969),13709.42458,1.746423513,89.92943948,221
188,Διαμέρισμα,16961501,139000,75,"Αγία Τριάδα, Φάληρο - Ιπποκράτειο (Θεσσαλονίκη - Δήμος)","Λεωφόρος Στρατού 23, Θεσσαλονίκη 54639, Ελλάδα",2,1,1,1,Φυσικό αέριο,Ε,1972,2010,,a9e165cf-193e-4cae-94a1-9fb7298e47d2,40.6426072,22.93977155,12,82.51072812,POINT (22.93977155 40.6426072),61023.28287,7.773666608,145.0066388,109
189,Διαμέρισμα,16925255,60000,23,"Ιπποκράτειο, Φάληρο - Ιπποκράτειο (Θεσσαλονίκη - Δήμος)","Γαριβάλδη 18, Θεσσαλονίκη 546 42, Ελλάδα, Ελλάδα",,1,1,1,Φυσικό αέριο,Γ,1970,2017,500,1cf64f5f-bd04-4855-8cd0-6a4a15a93d39,40.6121915,22.9601649,7,107.8584081,POINT (22.9601649 40.6121915),16704.60524,2.127975189,98.14592052,73
190,Διαμέρισμα,16877824,145000,72,"Αγία Τριάδα, Φάληρο - Ιπποκράτειο (Θεσσαλονίκη - Δήμος)","Σπάρτης 59, Θεσσαλονίκη 54640, Ελλάδα",4,1,1,1,Φυσικό αέριο,Δ,1964,,,44d8446a-37b5-493e-b0dc-af8ffb390c39,40.60738965,22.96159893,9,220.9878822,POINT (22.96159893 40.60738965),8365.712298,1.065695834,67.11615901,97
191,Διαμέρισμα,16785550,70000,31,"Καμάρα - Ροτόντα, Κέντρο Θεσσαλονίκης (Θεσσαλονίκη - Δήμος)","Ολύμπου 127, Θεσσαλονίκη 54635, Ελλάδα",2,1,1,1,Χωρίς θέρμανση,Δ,1965,,,910ed8e2-1399-4683-ac12-9f2c704f20cb,40.63527585,22.95227171,5,116.7442248,POINT (22.95227171 40.63527585),19494.1558,2.483331949,48.85831967,225
192,Διαμέρισμα,16699502,120000,58,Ανάληψη - Μπότσαρη - Νέα Παραλία (Θεσσαλονίκη - Δήμος),"Ιατρού Ζάννα 24, Θεσσαλονίκη 546 43, Ελλάδα, Ελλάδα",3,1,1,1,Φυσικό αέριο,Γ,1963,2018,,95591e28-6047-45b8-8246-b8afb03715dc,40.6080208,22.9561015,6,160.1816762,POINT (22.9561015 40.6080208),18281.52298,2.32885643,161.6431048,77
193,Διαμέρισμα,16536145,235000,85,"Αγία Τριάδα, Φάληρο - Ιπποκράτειο (Θεσσαλονίκη - Δήμος)","Λεωφόρος Βασιλίσσης Όλγας 19, Θεσσαλονίκη 54640, Ελλάδα",6,1,1,1,Φυσικό αέριο,Γ,1970,2024,500,34b9db00-bb19-40e9-b254-a84375bf7094,40.6159036,22.95456798,4,140.4060801,POINT (22.95456798 40.6159036),70073.33964,8.926540082,14.31989967,55
194,Studio / Γκαρσονιέρα,16404595,125000,38,"Μαρτίου, Βούλγαρη - Ντεπώ - Μαρτίου (Θεσσαλονίκη - Δήμος)","Λεωφόρος Βασιλίσσης Όλγας, 177, Θεσσαλονίκη Ελλάδα, 54645, Ελλάδα",1,1,1,1,Fan coil,Β,1980,2024,250,f52a173b-c026-464b-94de-73f972cd06b0,40.6001149,22.9544758,7,130.9752546,POINT (22.9544758 40.6001149),20559.68207,2.619067779,67.64072334,66
195,Διαμέρισμα,16334580,250000,107,Κέντρο Θεσσαλονίκης (Θεσσαλονίκη - Δήμος),"Διαλέττη 21, Θεσσαλονίκη 546 21, Ελλάδα, Ελλάδα",1,3,3,3,Αυτόνομη,Γ,1965,,,4ecb7974-d2e0-4804-94e9-88d20f4aea72,40.6282596,22.9520243,5,137.2562121,POINT (22.9520243 40.6282596),84937.43984,10.82005603,92.40019888,171
196,Studio / Γκαρσονιέρα,16259305,140000,35,"Λευκός Πύργος, Κέντρο Θεσσαλονίκης (Θεσσαλονίκη - Δήμος)","Τσιμισκή Ι., 114, Θεσσαλονίκη Ελλάδα, 54622, Ελλάδα",8,1,1,1,Ρεύμα,Δ,1970,2024,100,03e89a1e-250e-4836-9191-33007f5f1819,40.6290375,22.9486091,4,127.1713999,POINT (22.9486091 40.6290375),46772.61424,5.958294807,29.30388365,202
197,Studio / Γκαρσονιέρα,16219890,133000,35,"Δόξα, Τριανδρία - Δόξα (Θεσσαλονίκη - Δήμος)","Θράκης 3, Τριανδρία 55337, Θεσσαλονίκη, Ελλάδα",1,1,1,1,Φυσικό αέριο,Δ,1963,2024,4500,4dcaf972-8010-4db1-bfd7-14645980d6cb,40.6231596,22.9707192,5,89.89131426,POINT (22.9707192 40.6231596),7101.450845,0.90464342,209.0030688,17
198,Studio / Γκαρσονιέρα,16211474,125000,49,"Άνω Τούμπα, Τούμπα (Θεσσαλονίκη - Δήμος)","Πολυκλείτου 22, Θεσσαλονίκη 54351, Ελλάδα",3,1,1,1,Φυσικό αέριο,Γ,1977,2024,2000,056e9817-5826-4101-9846-f1eba6b916b5,40.6350946,22.9406619,7,57.2904473,POINT (22.9406619 40.6350946),95.41348686,0.012154584,18.89165669,197
199,Διαμέρισμα,16208625,160000,40,"Μαρτίου, Βούλγαρη - Ντεπώ - Μαρτίου (Θεσσαλονίκη - Δήμος)","Λεωφόρος Βασιλίσσης Όλγας 157, Θεσσαλονίκη 54645, Ελλάδα",1,1,1,1,Φυσικό αέριο,Γ,1962,2024,,e7c27787-05ac-42b9-bbf6-ed4342e6dfcf,40.6080078,22.9536251,5,73.16511467,POINT (22.9536251 40.6080078),57229.33408,7.290361029,35.95596883,67
200,Studio / Γκαρσονιέρα,16180045,118000,32,"Καμάρα - Ροτόντα, Κέντρο Θεσσαλονίκης (Θεσσαλονίκη - Δήμος)","Καμβουνιών 11, Θεσσαλονίκη 54621, Ελλάδα",3,,,,Φυσικό αέριο,Α,1970,2024,1000,71d27bad-59c9-435b-8080-90a75f93679a,40.6363235,22.93946697,6,18.52888843,POINT (22.93946697 40.6363235),68.27256719,0.008697142,59.20313015,181
201,Διαμέρισμα,16174210,153000,60,"Τσινάρι, Άνω Πόλη (Θεσσαλονίκη - Δήμος)","Επαμεινώνδα 7, Θεσσαλονίκη 54632, Ελλάδα",2,1,1,1,Φυσικό αέριο,,1972,2024,650,9094406e-b35e-42de-9843-2547521f845b,40.64707205,22.93558059,15,51.43084315,POINT (22.93558059 40.64707205),94188.33709,11.99851428,279.3600515,49
202,Διαμέρισμα,16150076,117000,41,"Παπάφη, Τούμπα (Θεσσαλονίκη - Δήμος)","Καρακάση, 94, Θεσσαλονίκη Ελλάδα, 54453, Ελλάδα",1,1,1,1,Φυσικό αέριο,Δ,1975,2024,700,83686bbf-4135-40d8-a22a-58e608f73008,40.6112639,22.9680587,10,142.455569,POINT (22.9680587 40.6112639),11033.03925,1.405482707,201.6156915,73
203,Studio / Γκαρσονιέρα,16072578,105000,45,"Μαρτίου, Βούλγαρη - Ντεπώ - Μαρτίου (Θεσσαλονίκη - Δήμος)","Θερμοπυλών 31, Θεσσαλονίκη 54248, Ελλάδα",3,1,1,1,Φυσικό αέριο,Γ,1970,2024,700,b9bc89a5-d0fb-4db5-95b3-87953dfa70e3,40.5981584,22.96194187,8,202.853757,POINT (22.96194187 40.5981584),21655.3758,2.758646599,226.7314834,75
204,Διαμέρισμα,16062310,155000,57,"Μαρτίου, Βούλγαρη - Ντεπώ - Μαρτίου (Θεσσαλονίκη - Δήμος)","Καλλιγά 4, Θεσσαλονίκη 54645, Ελλάδα",2,1,1,1,Φυσικό αέριο,Δ,1975,2024,350,c624c607-b5d0-4d6d-8cd4-7a46ec3cc537,40.5996039,22.952037,7,53.60550999,POINT (22.952037 40.5996039),40080.31906,5.105773128,67.37261232,56
205,Διαμέρισμα,16016997,120000,65,"Παπάφη, Τούμπα (Θεσσαλονίκη - Δήμος)","Εγνατία, Θεσσαλονίκη 54638, Ελλάδα",3,1,,1,Φυσικό αέριο,Γ,1967,2010,500,18533059-1376-475a-a50a-f95657804f86,40.6387897,22.9385065,10,63.28271086,POINT (22.9385065 40.6387897),4980.257374,0.634427691,35.75028931,144
206,Διαμέρισμα,15950423,126000,48,Βαρδάρης - Λαχανόκηποι (Θεσσαλονίκη - Δήμος),"ΦΙΝΤΙΟΥ 21, Θεσσαλονίκη, Ελλάδα",4,1,1,1,Φυσικό αέριο,,2024,,500,245040ab-f73e-4540-98f9-4b33737e73f0,40.6581745,22.9316097,14,202.2559873,POINT (22.9316097 40.6581745),19384.06732,2.469307938,156.1963556,43
207,Studio / Γκαρσονιέρα,15928424,125000,23,"Αγία Σοφία, Κέντρο Θεσσαλονίκης (Θεσσαλονίκη - Δήμος)","Νικ. Κουκούφλη 6, Θεσσαλονίκη 546 22, Ελλάδα, Ελλάδα",6,,1,,Φυσικό αέριο,Β,1960,2024,800,50dec81c-016b-44e8-af4e-1478e1869ffb,40.6293453,22.9453477,4,102.0304594,POINT (22.9453477 40.6293453),17244.80487,2.19679043,75.38895653,206
208,Studio / Γκαρσονιέρα,15885407,110000,39,"Μπότσαρη, Ανάληψη - Μπότσαρη - Νέα Παραλία (Θεσσαλονίκη - Δήμος)","28ης Οκτωβρίου 74, Θεσσαλονίκη 546 42, Ελλάδα, Ελλάδα",2,1,1,1,Φυσικό αέριο,Γ,1969,2024,,639ab577-7596-4f6e-9aca-ac9efb55af1a,40.610288,22.9599642,10,221.5174137,POINT (22.9599642 40.610288),10979.60053,1.398675226,206.0726858,81
209,Διαμέρισμα,15865356,115000,44,"Κάτω Τούμπα, Τούμπα (Θεσσαλονίκη - Δήμος)","Αμφιπόλεως 1, Θεσσαλονίκη 54454, Ελλάδα",3,1,1,1,Φυσικό αέριο,Γ,1977,2024,500,a90f78d2-dace-492b-ab42-4bcfae8652cd,40.61380345,22.96938832,11,75.82969565,POINT (22.96938832 40.61380345),24613.74381,3.135508766,181.5391153,58
210,Studio / Γκαρσονιέρα,15671162,30000,28,"Τριανδρία, Τριανδρία - Δόξα (Θεσσαλονίκη - Δήμος)","Μικράς Ασίας 4-24, 553 37, Τριανδρία, Θεσσαλονίκη, Ελλάδα",,1,1,1,Χωρίς θέρμανση,Δ,1975,,,1b81a008-a026-458b-8ed6-d2b90fbf0e47,40.6217226,22.9711992,5,164.9940337,POINT (22.9711992 40.6217226),3802.766837,0.484428896,217.5117806,19
211,Διαμέρισμα,15663257,110000,38,"Αγία Τριάδα, Φάληρο - Ιπποκράτειο (Θεσσαλονίκη - Δήμος)","Εδμόνδου Ροστάν , Θεσσαλονίκη 546 41, Ελλάδα, Ελλάδα",1,1,1,1,Φυσικό αέριο,Δ,1968,2024,600,243174f8-5ac4-48a9-b9cc-51a46ce729f3,40.6115811,22.9566281,8,85.25815663,POINT (22.9566281 40.6115811),27012.18383,3.441042526,165.8830359,71
212,Studio / Γκαρσονιέρα,14469269,117000,45,"Ιπποκράτειο, Φάληρο - Ιπποκράτειο (Θεσσαλονίκη - Δήμος)","Αλ. Παπαναστασίου 12, Θεσσαλονίκη 546 39, Ελλάδα, Ελλάδα",,1,1,1,Φυσικό αέριο,Α,Υπό κατασκευή,2023,,c8959aba-2212-45cf-966d-75b5fba92581,40.6166608,22.9606398,6,91.3320203,POINT (22.9606398 40.6166608),5067.503215,0.645541811,161.7369081,60
213,Studio / Γκαρσονιέρα,14379611,70000,30,"Αντιγονιδών, Κέντρο Θεσσαλονίκης (Θεσσαλονίκη - Δήμος)","Αντιγονιδών 23, Θεσσαλονίκη 54630, Ελλάδα",2,1,1,,Φυσικό αέριο,,2008,2008,,bf4a8fe6-9860-47cf-827b-b2ea6adac8be,40.6402327,22.9398948,12,119.6115503,POINT (22.9398948 40.6402327),6282.667468,0.800339805,81.69870663,150
214,Διαμέρισμα,13885468,90000,36,"Μαρτίου, Βούλγαρη - Ντεπώ - Μαρτίου (Θεσσαλονίκη - Δήμος)","Αλεξανδρείας 69, Θεσσαλονίκη 546 45, Ελλάδα, Ελλάδα",2,1,1,,Χωρίς θέρμανση,Ε,1970,,600,4b5c44ac-0233-4a40-8c7c-9075a83654aa,40.60125845,22.95582885,7,144.2449142,POINT (22.95582885 40.60125845),24205.04577,3.083445321,137.4773654,71
215,Studio / Γκαρσονιέρα,13336829,110000,49,Ανάληψη - Μπότσαρη - Νέα Παραλία (Θεσσαλονίκη - Δήμος),"Σόλωνος 54, Θεσσαλονίκη 546 44, Ελλάδα, Ελλάδα",2,1,1,1,Φυσικό αέριο,Β,Υπό κατασκευή,2019,,273d6115-faa7-43ec-ad69-bdedeed2b313,40.6403167,22.9352716,10,116.9200166,POINT (22.9352716 40.6403167),15433.97984,1.966112081,73.61096678,98
216,Studio / Γκαρσονιέρα,13240878,72000,33,"Διοικητήριο, Κέντρο Θεσσαλονίκης (Θεσσαλονίκη - Δήμος)","Κρατερου 3, Θεσσαλονίκη, Ελλάδα",,1,1,,Ρεύμα,Ζ,1936,2022,500,9af4cec4-eb90-4edf-ab5f-f103da212261,40.63958565,22.95256579,6,28.71562063,POINT (22.95256579 40.63958565),1788.19068,0.227794991,47.78108762,136
217,Διαμέρισμα,16981030,148000,40,"Καμάρα - Ροτόντα, Κέντρο Θεσσαλονίκης (Θεσσαλονίκη - Δήμος)","Μοίραρχου Δ. Κουφίτσα 10-14, 546 35, Θεσσαλονίκη, Ελλάδα",2,1,1,1,Φυσικό αέριο,Γ,1962,2025,1500,d29f89f8-aa12-4ea9-a444-fc22e504e5f8,40.6371404,22.951761,7,62.76530102,POINT (22.951761 40.6371404),2367.205253,0.301554809,81.59761315,200
218,Studio / Γκαρσονιέρα,16961856,100000,27,"Μπότσαρη, Ανάληψη - Μπότσαρη - Νέα Παραλία (Θεσσαλονίκη - Δήμος)","Ορέστου 53-55, 546 42, Θεσσαλονίκη, Ελλάδα",2,1,1,1,Φυσικό αέριο,Δ,1973,2025,500,fe1fd808-1601-481b-b5c6-3f3a57a1a222,40.6094599,22.95874,8,134.534903,POINT (22.95874 40.6094599),12520.30406,1.594943192,160.275637,79
219,Studio / Γκαρσονιέρα,16961729,103000,31,"Μπότσαρη, Ανάληψη - Μπότσαρη - Νέα Παραλία (Θεσσαλονίκη - Δήμος)","Ορέστου 53-55, 546 42, Θεσσαλονίκη, Ελλάδα",2,1,1,1,Φυσικό αέριο,Δ,1973,2025,500,498df0b7-9f41-4230-b881-d80d276dee59,40.6094599,22.95874,8,134.534903,POINT (22.95874 40.6094599),12520.30406,1.594943192,160.275637,79
220,Studio / Γκαρσονιέρα,16961608,95000,25,"Μπότσαρη, Ανάληψη - Μπότσαρη - Νέα Παραλία (Θεσσαλονίκη - Δήμος)","Ορέστου 53-55, 546 42, Θεσσαλονίκη, Ελλάδα",2,1,1,1,Φυσικό αέριο,Δ,1973,2025,500,2eede2e6-2e17-470a-92aa-b78f22dc71e3,40.6094599,22.95874,8,134.534903,POINT (22.95874 40.6094599),12520.30406,1.594943192,160.275637,79
221,Διαμέρισμα,15538056,170000,55,Ανάληψη - Μπότσαρη - Νέα Παραλία (Θεσσαλονίκη - Δήμος),"ΠΑΤΡΩΝ 9, Θεσσαλονίκη, Ελλάδα",4,1,1,1,Φυσικό αέριο,,Υπό κατασκευή,,,a1432943-854b-45cc-b594-3c903f5c4bdf,38.2589296,21.7391011,0,270562.3984,POINT (21.7391011 38.2589296),0,0,275187.7406,0
222,Διαμέρισμα,17097589,130000,50,"Αγία Τριάδα, Φάληρο - Ιπποκράτειο (Θεσσαλονίκη - Δήμος)","Τρικούπη Χαρίλαου 9, Θεσσαλονίκη 54640, Ελλάδα",2,1,1,1,,Α,1970,2024,200,3aa0c8f4-7154-445b-ad42-7439f3316be1,40.6880874,22.8590897,4,66.08573001,POINT (22.8590897 40.6880874),0,0,153.2095134,3
223,Διαμέρισμα,17032467,140000,66,"Ιπποκράτειο, Φάληρο - Ιπποκράτειο (Θεσσαλονίκη - Δήμος)","Μισραχή Ν. 5, Θεσσαλονίκη 54641, Ελλάδα",1,1,1,1,Θερμοσυσσωρευτής,Η,1967,,900,e1675cb5-578b-4e19-b5ca-03bb508c979c,40.51980185,22.97408681,0,563.4115525,POINT (22.97408681 40.51980185),0,0,525.4336052,2
224,Διαμέρισμα,16994358,358000,95,"Αγία Σοφία, Κέντρο Θεσσαλονίκης (Θεσσαλονίκη - Δήμος)","Αγίας Σοφίας 64, Θεσσαλονίκη 54635, Ελλάδα",2,1,1,1,Φυσικό αέριο,Γ,1959,2025,700,8b2c1c5e-4381-412d-9e14-4587c7edfcb4,40.63234,22.9449476,7,91.64674275,POINT (22.9449476 40.63234),16952.56802,2.159562805,18.61958033,239
225,Studio / Γκαρσονιέρα,16960377,137000,44,"Μπότσαρη, Ανάληψη - Μπότσαρη - Νέα Παραλία (Θεσσαλονίκη - Δήμος)","Δημητρίου Μητροπούλου 1, Θεσσαλονίκη, Ελλάδα",2,1,1,,,Δ,1973,2024,,f969b2da-2efd-45d8-a9fd-3568b8e266f5,40.6096656,22.9633095,9,21.43833612,POINT (22.9633095 40.6096656),13618.3105,1.734816624,100.733198,91
227,Διαμέρισμα,16232292,200000,120,"Σταθμός ΟΣΕ, Βαρδάρης - Λαχανόκηποι (Θεσσαλονίκη - Δήμος)","Καλού Μιχαήλ 4, Θεσσαλονίκη 54629, Ελλάδα",7,1,1,1,Πετρέλαιο,Η,1980,,1000,50f9a0c4-3142-47d6-83cd-56a917dea909,40.6426046,22.931123,9,55.25245379,POINT (22.931123 40.6426046),8806.051462,1.121789995,87.96354323,48
228,Διαμέρισμα,16149978,150000,80,"Άνω Τούμπα, Τούμπα (Θεσσαλονίκη - Δήμος)","Αγίου Πρωτολέοντος 20, Θεσσαλονίκη 543 51, Ελλάδα, Ελλάδα",2,1,1,1,Αυτόνομη,Γ,1979,,,e4791032-75b8-4f58-8720-ef29e49b9a18,40.6191371,22.9731135,9,191.3701197,POINT (22.9731135 40.6191371),14932.81847,1.902269868,287.8452358,22
229,Studio / Γκαρσονιέρα,15890748,110000,39,"Ιπποκράτειο, Φάληρο - Ιπποκράτειο (Θεσσαλονίκη - Δήμος)","Αισχίνου 11, Θεσσαλονίκη 546 42, Ελλάδα, Ελλάδα",2,1,1,1,Φυσικό αέριο,Γ,1969,2024,,87391d29-c1e1-46f1-a066-21c9c8ab81f6,40.6106685,22.960476,10,190.6589053,POINT (22.960476 40.6106685),15806.43738,2.013558902,135.6184472,82
230,Διαμέρισμα,15739790,240000,80,"Καμάρα - Ροτόντα, Κέντρο Θεσσαλονίκης (Θεσσαλονίκη - Δήμος)","Πλατεία Ιπποδρομίου, Θεσσαλονίκη 54621, Ελλάδα",3,1,1,1,Χωρίς θέρμανση,,1961,,750,48b24ecc-9b6a-489a-886e-2bcf76e39bc0,40.6298835,22.9508073,4,106.2982935,POINT (22.9508073 40.6298835),31053.15319,3.955815693,75.65243644,199
231,Διαμέρισμα,15538409,140000,43,Ανάληψη - Μπότσαρη - Νέα Παραλία (Θεσσαλονίκη - Δήμος),"ΠΑΤΡΩΝ 9, Θεσσαλονίκη, Ελλάδα",5,1,1,1,Φυσικό αέριο,,Υπό κατασκευή,,,50e56afb-6b70-461a-816a-2271cc3814cd,38.2589296,21.7391011,0,270562.3984,POINT (21.7391011 38.2589296),0,0,275187.7406,0
232,Διαμέρισμα,15537934,155000,59,Ανάληψη - Μπότσαρη - Νέα Παραλία (Θεσσαλονίκη - Δήμος),"ΠΑΤΡΩΝ 9, Θεσσαλονίκη, Ελλάδα",3,1,1,1,Φυσικό αέριο,,Υπό κατασκευή,,,fa2e6a51-6e9d-4c99-93da-afcdf1512f38,38.2589296,21.7391011,0,270562.3984,POINT (21.7391011 38.2589296),0,0,275187.7406,0
233,Διαμέρισμα,14208599,118000,48,"Αγία Τριάδα, Φάληρο - Ιπποκράτειο (Θεσσαλονίκη - Δήμος)","Δίωνος 4, 546 41, Θεσσαλονίκη, Ελλάδα",,1,1,1,Χωρίς θέρμανση,Β,2023,,,4c4ec042-1704-43d6-bc3e-a1a6c4b38530,40.62431515,22.95956802,1,155.1587782,POINT (22.95956802 40.62431515),32617.09899,4.155044457,273.0466987,65
234,Διαμέρισμα,11468306,160000,50,"Ιστορικό Κέντρο, Κέντρο Θεσσαλονίκης (Θεσσαλονίκη - Δήμος)","Σιατίστης 4 Θεσσαλονίκη 54631, Ελλάδα",3,1,1,1,Φυσικό αέριο,Α,1978,2021,600,62d0f157-83aa-4550-a07e-f9e55e2194ec,40.62431515,22.95956802,1,155.1587782,POINT (22.95956802 40.62431515),32617.09899,4.155044457,273.0466987,65
235,Διαμέρισμα,11468279,175000,60,"Ιστορικό Κέντρο, Κέντρο Θεσσαλονίκης (Θεσσαλονίκη - Δήμος)","Σιατίστης 4 Θεσσαλονίκη 54631, Ελλάδα",3,1,1,1,Φυσικό αέριο,Α,1978,2021,600,b21cf0c3-43eb-4de9-9362-a832d09d8573,40.62431515,22.95956802,1,155.1587782,POINT (22.95956802 40.62431515),32617.09899,4.155044457,273.0466987,65
236,Studio / Γκαρσονιέρα,11166064,150000,50,"Λευκός Πύργος, Κέντρο Θεσσαλονίκης (Θεσσαλονίκη - Δήμος)","Εθνικής Αμύνης 10, Θεσσαλονίκη 54621, Ελλάδα",,1,1,1,Ρεύμα,Γ,1970,2023,,eaf82af1-8d97-4f95-a278-7007f1b578f0,40.6329844,22.9551117,4,112.1423381,POINT (22.9551117 40.6329844),87635.21403,11.16372153,131.1377694,170
237,Διαμέρισμα,17010982,210000,120,"Μαρτίου, Βούλγαρη - Ντεπώ - Μαρτίου (Θεσσαλονίκη - Δήμος)","Λεωφόρος Βασιλίσσης Όλγας 137, Θεσσαλονίκη 54645, Ελλάδα",4,1,1,1,Φυσικό αέριο,Α,1972,2020,200,31480d35-57e8-4c08-a76e-7d877ae9447d,40.6036597,22.95330178,7,180.681238,POINT (22.95330178 40.6036597),50529.76694,6.436912986,23.63991855,69
238,Διαμέρισμα,16980015,72000,38,"Άγιος Δημήτριος, Κέντρο Θεσσαλονίκης (Θεσσαλονίκη - Δήμος)","Αγίας Σοφίας 88, Θεσσαλονίκη 54634, Ελλάδα",1,1,1,1,Ρεύμα,Ε,1965,,,49d46afb-d5fa-4926-95c7-f4a4f0fbc6a8,40.63234,22.9449476,7,91.64674275,POINT (22.9449476 40.63234),16952.56802,2.159562805,18.61958033,239
240,Κτίριο,16550831,210000,86,"Κάτω Τούμπα, Τούμπα (Θεσσαλονίκη - Δήμος)","Καλλιπόλεως 20-26, 544 54, Θεσσαλονίκη, Ελλάδα",2,2,2,2,Χωρίς θέρμανση,Α,Υπό κατασκευή,,1500,39264841-4371-41ce-a19d-0bb848e1f3a3,40.6403167,22.9352716,10,116.9200166,POINT (22.9352716 40.6403167),15433.97984,1.966112081,73.61096678,98
241,Διαμέρισμα,16383024,115000,48,"Μαρτίου, Βούλγαρη - Ντεπώ - Μαρτίου (Θεσσαλονίκη - Δήμος)","Συνδίκα Πέτρου 54, Θεσσαλονίκη 54248, Ελλάδα",4,1,,1,Φυσικό αέριο,Β,1965,2022,300,2c104c3f-2c02-4017-a94d-df9c6cd45e04,40.6057693,22.9639417,11,77.45616882,POINT (22.9639417 40.6057693),6413.870236,0.817053533,73.37836794,93
242,Studio / Γκαρσονιέρα,16105680,115000,34,"Μαρτίου, Βούλγαρη - Ντεπώ - Μαρτίου (Θεσσαλονίκη - Δήμος)","Δελφών 123, Θεσσαλονίκη 54248, Ελλάδα",2,,1,1,Φυσικό αέριο,Γ,1965,2024,,b91c263d-9c0f-4058-a9ea-c6bdaff5bbfe,40.6044977,22.9584805,9,94.03497969,POINT (22.9584805 40.6044977),11849.66414,1.509511355,0,97
243,Διαμέρισμα,15594062,75000,57,"Σταθμός ΟΣΕ, Βαρδάρης - Λαχανόκηποι (Θεσσαλονίκη - Δήμος)","Σαπφούς 37, Θεσσαλονίκη 546 27, Ελλάδα, Ελλάδα",3,1,1,1,Φυσικό αέριο,,1965,,,58f43b54-944a-4aa9-9571-f4af73bce7a3,40.6431518,22.9494803,14,26.84649998,POINT (22.9494803 40.6431518),7043.788643,0.897297916,180.1657315,95
244,Διαμέρισμα,13460477,188000,45,"Ιστορικό Κέντρο, Κέντρο Θεσσαλονίκης (Θεσσαλονίκη - Δήμος)","Ιωάννου Μιχαήλ 11, Θεσσαλονίκη 54621, Ελλάδα",1,1,1,1,Φυσικό αέριο,,,2023,100,f3e9dd09-c8ad-4480-9267-dddb96315abe,40.6314211,22.9509542,4,134.3848645,POINT (22.9509542 40.6314211),37745.42522,4.808334422,53.05365566,209
245,Διαμέρισμα,16778878,150000,70,"40 Εκκλησιές, 40 Εκκλησιές - Ευαγγελίστρια (Θεσσαλονίκη - Δήμος)","Ιωακείμ Γ. 12, Θεσσαλονίκη 54636, Ελλάδα",1,1,1,1,Αυτόνομη,Δ,1960,,,79f42734-deb9-4d50-ba10-a974923b9de1,40.6274745,22.9642814,3,93.68892912,POINT (22.9642814 40.6274745),11536.13995,1.469571968,339.2305539,28
246,Διαμέρισμα,14997182,190000,40,"Ιστορικό Κέντρο, Κέντρο Θεσσαλονίκης (Θεσσαλονίκη - Δήμος)","Ποδηλατόδρομος Θεσσαλονίκης, Θεσσαλονίκη 54624, Ελλάδα",3,1,1,1,Ρεύμα,,,,50,7d1156db-5d94-44b8-977f-0b2015cc1e9a,40.64171625,22.91342454,3,127.8284628,POINT (22.91342454 40.64171625),0,0,521.0452924,9
247,Διαμέρισμα,13224300,120000,65,"Παπάφη, Τούμπα (Θεσσαλονίκη - Δήμος)","Παπάφη 95, Θεσσαλονίκη 54453, Ελλάδα",2,1,1,1,Φυσικό αέριο,Γ,1970,2012,4000,f4df4fa4-3353-4a9d-8d72-b65f5fd2bb3f,40.60722065,22.96717141,11,36.8089128,POINT (22.96717141 40.60722065),6921.327928,0.881697825,128.8601814,81
248,Studio / Γκαρσονιέρα,17140939,83000,27,"Βαρδάρης, Βαρδάρης - Λαχανόκηποι (Θεσσαλονίκη - Δήμος)","Τριπόλεως 1, Θεσσαλονίκη 54630, Ελλάδα",2,1,1,,Ρεύμα,Α,1967,2024,,b0a002da-32c0-4459-bd8d-e2695c16c4f9,40.6274745,22.9642814,3,93.68892912,POINT (22.9642814 40.6274745),11536.13995,1.469571968,339.2305539,28
249,Διαμέρισμα,17099228,67000,58,"Αγία Τριάδα, Φάληρο - Ιπποκράτειο (Θεσσαλονίκη - Δήμος)","Καραϊσκάκη 9, Θεσσαλονίκη 54641, Ελλάδα",,,1,,Φυσικό αέριο,Ε,,2024,400,4abcfe17-3f9e-4d3d-b4df-70ad70f80c5a,40.62308715,22.97362439,5,37.69342322,POINT (22.97362439 40.62308715),2195.675342,0.279703865,132.0538374,16
250,Studio / Γκαρσονιέρα,17054617,100000,55,"Καμάρα - Ροτόντα, Κέντρο Θεσσαλονίκης (Θεσσαλονίκη - Δήμος)","Αρριανού 9, Θεσσαλονίκη 54635, Ελλάδα",,1,1,1,Ρεύμα,Ε,1965,2024,,e3c73e46-3463-493c-baf7-82af2daf232a,40.6342798,22.9515902,4,225.0464927,POINT (22.9515902 40.6342798),26430.79665,3.366980465,69.04432192,232
251,Διαμέρισμα,16964109,139500,58,"Ιπποκράτειο, Φάληρο - Ιπποκράτειο (Θεσσαλονίκη - Δήμος)","Παπαναστασίου Αλέξανδρου, Θεσσαλονίκη 54644, Ελλάδα",1,,1,1,Φυσικό αέριο,Γ,1976,2025,,652a1e59-2b0d-47b3-aa62-785638ae7a7f,40.5732872,22.9534578,1,94.23376607,POINT (22.9534578 40.5732872),65208.37924,8.306799903,106.9222851,25
252,Διαμέρισμα,16835730,350000,135,"Νέα Παραλία, Ανάληψη - Μπότσαρη - Νέα Παραλία (Θεσσαλονίκη - Δήμος)","Λεωφόρος Βασιλίσσης Όλγας 66, Θεσσαλονίκη 54642, Ελλάδα",3,,2,1,Φυσικό αέριο,Ε,1967,2024,,ef99cc10-6c22-4556-bab4-d339209a18bf,40.6101899,22.9533357,5,106.9975099,POINT (22.9533357 40.6101899),87571.67097,11.15562688,97.05675948,60
253,Διαμέρισμα,16835036,190000,75,"Νέα Παραλία, Ανάληψη - Μπότσαρη - Νέα Παραλία (Θεσσαλονίκη - Δήμος)","28ης Οκτωβρίου, Θεσσαλονίκη 54642, Ελλάδα",3,,,1,Φυσικό αέριο,Ε,1965,2024,,d9b69664-da04-41eb-b314-32fffaab6d23,40.64171625,22.91342454,3,127.8284628,POINT (22.91342454 40.64171625),0,0,521.0452924,9
254,Διαμέρισμα,16775928,100000,50,"Τσινάρι, Άνω Πόλη (Θεσσαλονίκη - Δήμος)","Επαμεινώνδα, Θεσσαλονίκη Ελλάδα, Ελλάδα",3,1,2,1,Ρεύμα,Ε,1970,2024,2000,3979b016-3159-4d68-9b6e-3f48ef94d40d,40.6403167,22.9352716,10,116.9200166,POINT (22.9352716 40.6403167),15433.97984,1.966112081,73.61096678,98
255,Διαμέρισμα,16673855,260000,70,"Αγία Σοφία, Κέντρο Θεσσαλονίκης (Θεσσαλονίκη - Δήμος)","Γεωργίου Κύπριου Χ. 1, Θεσσαλονίκη 54622, Ελλάδα",2,1,1,1,Φυσικό αέριο,Δ,1970,2024,200,ffcb9e22-3f9c-4a3b-8656-440e500f06ff,40.6330006,22.9482173,6,69.04499138,POINT (22.9482173 40.6330006),25276.97772,3.219997162,68.28024433,244
256,Διαμέρισμα,16657904,195000,93,"Αγία Τριάδα, Φάληρο - Ιπποκράτειο (Θεσσαλονίκη - Δήμος)","Κατσιμίδη 1, Θεσσαλονίκη 546 39, Ελλάδα, Ελλάδα",2,1,1,1,Φυσικό αέριο,Γ,1974,2024,600,8a28febc-dc3c-4f51-9fa4-96cc88d135e9,40.6138703,22.97236555,14,137.0421928,POINT (22.97236555 40.6138703),27404.6904,3.491043363,150.3579655,50
257,Μεζονέτα,16550895,460000,157,"Κάτω Τούμπα, Τούμπα (Θεσσαλονίκη - Δήμος)","Καλλιπόλεως 17-21, 544 54, Θεσσαλονίκη, Ελλάδα",6,1,1,1,Χωρίς θέρμανση,Α,Υπό κατασκευή,,1500,d6074e21-767f-4967-b042-944d7704d957,40.6417612,22.95226088,11,111.5076907,POINT (22.95226088 40.6417612),9239.645741,1.177024935,191.5218211,98
258,Διαμέρισμα,16430715,130000,44,"Αγία Τριάδα, Φάληρο - Ιπποκράτειο (Θεσσαλονίκη - Δήμος)","Σπάρτης 55, Θεσσαλονίκη 546 40, Ελλάδα, Ελλάδα",1,1,1,1,,,1964,2024,300,a756624d-36aa-444a-90e5-5f9270b34194,40.619255,22.96114197,5,196.6886908,POINT (22.96114197 40.619255),1384.244447,0.176336872,244.0529365,55
259,Διαμέρισμα,16311857,125000,45,"Κάτω Τούμπα, Τούμπα (Θεσσαλονίκη - Δήμος)","Δημητσάνας 19, Θεσσαλονίκη 54454, Ελλάδα",2,1,1,1,Φυσικό αέριο,Γ,1978,2024,4000,8e62fe20-5e01-45fb-a125-55b94019ccfe,40.61289385,22.96983383,11,12.6725582,POINT (22.96983383 40.61289385),16876.4314,2.149863873,242.940458,59
260,Διαμέρισμα,16137429,110000,48,"Αγία Σοφία, Κέντρο Θεσσαλονίκης (Θεσσαλονίκη - Δήμος)","Σβώλου Αλεξάνδρου, 6, Θεσσαλονίκη Ελλάδα, 54622, Ελλάδα",6,1,1,1,Ρεύμα,,1970,2022,400,59c8aefa-8db5-4623-9c72-2461148c15f6,40.6766896,22.802169,0,103.8056201,POINT (22.802169 40.6766896),0,0,598.8749496,8
261,Διαμέρισμα,16117507,350000,90,"Ιστορικό Κέντρο, Κέντρο Θεσσαλονίκης (Θεσσαλονίκη - Δήμος)","Αριστοτέλους , Θεσσαλονίκη 546 23, Ελλάδα, Ελλάδα",6,1,1,1,Χωρίς θέρμανση,,1964,,,affc8f82-b22c-41db-922c-8727f616f8fa,40.6403167,22.9352716,10,116.9200166,POINT (22.9352716 40.6403167),15433.97984,1.966112081,73.61096678,98
262,Διαμέρισμα,15945462,105000,45,"Μπότσαρη, Ανάληψη - Μπότσαρη - Νέα Παραλία (Θεσσαλονίκη - Δήμος)","Τομπάζη Ν. 33, Θεσσαλονίκη 54644, Ελλάδα",4,1,1,1,Φυσικό αέριο,Α,1970,2023,700,32a39af4-4884-4b7f-8f81-194fd0b059ac,40.63767475,22.95620789,3,128.7084855,POINT (22.95620789 40.63767475),54024.16225,6.882058886,170.1374302,119
263,Διαμέρισμα,14309432,335000,110,"Κάτω Τούμπα, Τούμπα (Θεσσαλονίκη - Δήμος)","Δημητσάνας 46, 544 54, Θεσσαλονίκη, Ελλάδα",7,1,1,1,Φυσικό αέριο,Α,2023,,2000,b6c2cc33-b35f-4173-9a26-1b4d00c74ab0,40.6403167,22.9352716,10,116.9200166,POINT (22.9352716 40.6403167),15433.97984,1.966112081,73.61096678,98
264,Διαμέρισμα,13854145,30000,74,"Βούλγαρη - Άγιος Ελευθέριος - Ντεπώ, Βούλγαρη - Ντεπώ - Μαρτίου (Θεσσαλονίκη - Δήμος)","Καθηγητού Παπαδάκη Νικ. 33, Θεσσαλονίκη 54248, Ελλάδα",5,1,1,1,Χωρίς θέρμανση,,1998,,1000,7910ae94-2dd5-41b6-affc-de04d0e4e3a7,40.5974555,22.959119,8,109.0746495,POINT (22.959119 40.5974555),17897.56689,2.279944827,199.577858,65
265,Διαμέρισμα,13453527,325000,114,"Κάτω Τούμπα, Τούμπα (Θεσσαλονίκη - Δήμος)","Δημητσάνας 46, 544 54, Θεσσαλονίκη, Ελλάδα",5,1,1,1,Φυσικό αέριο,Α,2023,,2000,df1f0332-e163-46f9-8d84-66b2d76f666a,40.6403167,22.9352716,10,116.9200166,POINT (22.9352716 40.6403167),15433.97984,1.966112081,73.61096678,98
266,Διαμέρισμα,16825173,83000,25,"Παναγία Φανερωμένη, Ξηροκρήνη - Παναγία Φανερωμένη (Θεσσαλονίκη - Δήμος)","Προκοπίου Ικονίου 2-12, 546 32, Θεσσαλονίκη, Ελλάδα",2,,1,,Φυσικό αέριο,Δ,1965,2024,,15e5d746-27e1-4e3b-850f-117d28525a37,40.6460455,22.9379214,14,15.79017205,POINT (22.9379214 40.6460455),109894.8165,13.99933968,89.41791317,67
267,Διαμέρισμα,16658884,335000,120,"Νέα Παραλία, Ανάληψη - Μπότσαρη - Νέα Παραλία (Θεσσαλονίκη - Δήμος)","Ποδηλατόδρομος Θεσσαλονίκης, Θεσσαλονίκη 54640, Ελλάδα",5,1,1,1,Φυσικό αέριο,Γ,2024,,,20526294-5797-4d65-81c3-0759b9463509,40.6143837,22.95830949,7,61.77195449,POINT (22.95830949 40.6143837),3728.561042,0.474975929,60.33651767,70
268,Διαμέρισμα,16655787,268000,63,"Καμάρα - Ροτόντα, Κέντρο Θεσσαλονίκης (Θεσσαλονίκη - Δήμος)","Ροτόντα, Θεσσαλονίκη, Ελλάδα",6,,1,,Φυσικό αέριο,Γ,1968,2023,800,ae03aef4-40fb-43e3-b4c9-992d2d9c278f,40.6403167,22.9352716,10,116.9200166,POINT (22.9352716 40.6403167),15433.97984,1.966112081,73.61096678,98
269,Studio / Γκαρσονιέρα,16015025,120000,50,"Βούλγαρη - Άγιος Ελευθέριος - Ντεπώ, Βούλγαρη - Ντεπώ - Μαρτίου (Θεσσαλονίκη - Δήμος)","Στρωμνίτσης, 34, Θεσσαλονίκη Ελλάδα, 54248, Ελλάδα",,1,1,1,Φυσικό αέριο,Δ,1970,2022,,7a4ec39b-905b-40f4-ab03-2384d2beb50b,40.6342642,22.9435925,7,35.14021709,POINT (22.9435925 40.6342642),11605.54765,1.478413713,53.38923564,243
270,Διαμέρισμα,15554063,110000,51,"Τριανδρία, Τριανδρία - Δόξα (Θεσσαλονίκη - Δήμος)","Αγίου Σπυρίδωνος 8, Τριανδρία 55337, Θεσσαλονίκη, Ελλάδα",4,1,1,1,Φυσικό αέριο,Γ,1976,2022,,2d3de2f8-845b-4d5d-949c-5ff25a7d5bb5,40.6234063,22.9716773,5,32.10889503,POINT (22.9716773 40.6234063),2195.675342,0.279703865,98.93155957,17
271,Διαμέρισμα,15542675,110000,40,"Μπότσαρη, Ανάληψη - Μπότσαρη - Νέα Παραλία (Θεσσαλονίκη - Δήμος)","Μητρόπουλου Δημητρίου 23, Θεσσαλονίκη 54642, Ελλάδα",2,1,1,1,Φυσικό αέριο,Γ,1973,2024,1000,80dc3940-3690-44e1-8f5d-031062e2a356,40.630849,22.943632,6,80.39721994,POINT (22.943632 40.630849),10571.14287,1.346642403,67.84079821,219
272,Διαμέρισμα,15526232,145000,56,Ανάληψη - Μπότσαρη - Νέα Παραλία (Θεσσαλονίκη - Δήμος),"ΠΑΤΡΩΝ 9, Θεσσαλονίκη, Ελλάδα",1,1,1,1,Φυσικό αέριο,,Υπό κατασκευή,,500,0b0d0a2d-1ae0-4d04-be64-7e341b755856,38.2589296,21.7391011,0,270562.3984,POINT (21.7391011 38.2589296),0,0,275187.7406,0
273,Διαμέρισμα,9589337,98000,45,"Καμάρα - Ροτόντα, Κέντρο Θεσσαλονίκης (Θεσσαλονίκη - Δήμος)","Ησαΐα 8, Θεσσαλονίκη 54634, Ελλάδα",2,1,1,1,Ρεύμα,Γ,1969,2024,,de00ab73-fbcb-4113-abfe-dc0bbb43bf21,40.6319144,22.96589631,2,66.73828098,POINT (22.96589631 40.6319144),23900.13409,3.044603069,248.2508307,14
274,Διαμέρισμα,15537831,180000,59,Ανάληψη - Μπότσαρη - Νέα Παραλία (Θεσσαλονίκη - Δήμος),"ΠΑΤΡΩΝ 9, Θεσσαλονίκη, Ελλάδα",3,1,1,1,Φυσικό αέριο,,Υπό κατασκευή,,500,bbc59cc4-cf97-4642-8150-a647081b456b,38.2589296,21.7391011,0,270562.3984,POINT (21.7391011 38.2589296),0,0,275187.7406,0
275,Διαμέρισμα,17064596,295000,60,"Λευκός Πύργος, Κέντρο Θεσσαλονίκης (Θεσσαλονίκη - Δήμος)","Τσιμισκή Ι. 109, Θεσσαλονίκη 54622, Ελλάδα",,1,1,1,Φυσικό αέριο,Γ,1962,,,e9642281-5861-43cb-8097-72320fdc4621,40.6267956,22.9525037,5,38.57711041,POINT (22.9525037 40.6267956),128240.4018,16.33635692,87.44516198,147
276,Διαμέρισμα,16730933,235000,78,"Μπότσαρη, Ανάληψη - Μπότσαρη - Νέα Παραλία (Θεσσαλονίκη - Δήμος)","Θηναίας 11, 546 42, Θεσσαλονίκη, Ελλάδα",1,1,1,1,Φυσικό αέριο,Α,2024,,,5aa6af92-01e7-48bc-ba08-9dd1953bd37c,40.6102376,22.9616075,10,181.4934723,POINT (22.9616075 40.6102376),18650.70934,2.375886541,48.50136261,90
277,Διαμέρισμα,16730922,245000,78,"Μπότσαρη, Ανάληψη - Μπότσαρη - Νέα Παραλία (Θεσσαλονίκη - Δήμος)","Θηναίας 11, 546 42, Θεσσαλονίκη, Ελλάδα",3,1,1,1,Φυσικό αέριο,Α,2024,,,b17da0bc-22bd-40f0-8a71-047e229fab9c,40.6102376,22.9616075,10,181.4934723,POINT (22.9616075 40.6102376),18650.70934,2.375886541,48.50136261,90
278,Διαμέρισμα,16632546,148000,49,"Μαρτίου, Βούλγαρη - Ντεπώ - Μαρτίου (Θεσσαλονίκη - Δήμος)","Ανάληψη, Θεσσαλονίκη, Ελλάδα",5,,1,,Φυσικό αέριο,Γ,1961,2024,,a78ab769-a457-4631-a14f-34964d59ba9c,40.6403167,22.9352716,10,116.9200166,POINT (22.9352716 40.6403167),15433.97984,1.966112081,73.61096678,98
279,Studio / Γκαρσονιέρα,16376681,39000,27,"Ιστορικό Κέντρο, Κέντρο Θεσσαλονίκης (Θεσσαλονίκη - Δήμος)","Κασσάνδρου 113, Θεσσαλονίκη 546 34, Ελλάδα, Ελλάδα",4,1,1,,Αυτόνομη,Δ,1975,,,a67f831a-63bb-401a-ac18-48ea2d6ded33,40.6342642,22.9435925,7,35.14021709,POINT (22.9435925 40.6342642),11605.54765,1.478413713,53.38923564,243
280,Διαμέρισμα,15564610,147000,58,"Δόξα, Τριανδρία - Δόξα (Θεσσαλονίκη - Δήμος)","Τρικούπη Χαριλάου 36, Τριανδρία 55337, Θεσσαλονίκη, Ελλάδα",,1,1,1,Φυσικό αέριο,Β,1980,2024,2500,53b944b5-b290-468b-bdb2-3597d98f3af8,40.6230082,22.971659,4,51.86778335,POINT (22.971659 40.6230082),2302.524885,0.293315272,117.9682075,17
281,Διαμέρισμα,10519508,75000,25,"Λευκός Πύργος, Κέντρο Θεσσαλονίκης (Θεσσαλονίκη - Δήμος)","Μελά Παύλου, Θεσσαλονίκη 54621, Ελλάδα",,1,1,1,Ρεύμα,Γ,1970,2024,,3c1ce465-905e-49b6-b7f1-2601810ddcdd,40.6848211,22.95445737,2,173.5706559,POINT (22.95445737 40.6848211),4568.187775,0.581934748,283.0799583,4
282,Διαμέρισμα,16730851,430000,122,"Μπότσαρη, Ανάληψη - Μπότσαρη - Νέα Παραλία (Θεσσαλονίκη - Δήμος)","Γυθείου 6, 546 44, Θεσσαλονίκη, Ελλάδα",4,1,1,,Φυσικό αέριο,Α,2023,,,993344c2-f19a-4b1c-a0cd-dc0a93bb55ac,40.62504055,22.95394986,1,50.17823825,POINT (22.95394986 40.62504055),180299.0256,22.96802873,65.67457745,123
283,Διαμέρισμα,17142719,180000,70,"Μαρτίου, Βούλγαρη - Ντεπώ - Μαρτίου (Θεσσαλονίκη - Δήμος)","Παπακυριαζή, 4, Θεσσαλονίκη Ελλάδα, 54645, Ελλάδα",1,1,1,,Φυσικό αέριο,Γ,1980,2025,300,eb43115c-ba06-4bf8-bbe9-e519809500c6,40.62431515,22.95956802,1,155.1587782,POINT (22.95956802 40.62431515),32617.09899,4.155044457,273.0466987,65
284,Studio / Γκαρσονιέρα,17092001,73000,31,"Άνω Τούμπα, Τούμπα (Θεσσαλονίκη - Δήμος)","Ι. Γκούρα 61, Θεσσαλονίκη 543 52, Ελλάδα, Ελλάδα",,1,1,1,Ρεύμα,Ε,1979,,,694558fc-2775-4cd0-bbe4-a527d4aca352,40.6132329,22.9857123,9,170.2300785,POINT (22.9857123 40.6132329),1784.594885,0.227336928,167.4644891,19
285,Διαμέρισμα,17073267,225000,92,"Αγία Τριάδα, Φάληρο - Ιπποκράτειο (Θεσσαλονίκη - Δήμος)","Παπάφη 88, Θεσσαλονίκη 544 53, Ελλάδα, Ελλάδα",3,1,1,1,Φυσικό αέριο,Β,1973,2024,,9580ee91-249e-4848-bfe5-77e62ac7e9e7,40.64094275,22.94854651,14,184.0198904,POINT (22.94854651 40.64094275),5704.040121,0.726629315,224.7693847,146
286,Studio / Γκαρσονιέρα,17001692,130000,45,"Μπότσαρη, Ανάληψη - Μπότσαρη - Νέα Παραλία (Θεσσαλονίκη - Δήμος)","28ης Οκτωβρίου, 50, Θεσσαλονίκη Ελλάδα, 54642, Ελλάδα",5,1,1,1,Φυσικό αέριο,Α,1970,2024,500,953f4c4d-30fc-4c8d-9c6c-72c31b2c781b,40.64171625,22.91342454,3,127.8284628,POINT (22.91342454 40.64171625),0,0,521.0452924,9
287,Studio / Γκαρσονιέρα,16996465,138000,30,"Αγία Σοφία, Κέντρο Θεσσαλονίκης (Θεσσαλονίκη - Δήμος)","Φιλίππου 69, Θεσσαλονίκη 54635, Ελλάδα",1,1,1,1,Φυσικό αέριο,Γ,1964,2025,,566c4e91-731a-429e-ad4b-7457f856aae3,40.63547335,22.94930252,6,217.8230641,POINT (22.94930252 40.63547335),14423.1768,1.837347363,36.67750117,246
288,Διαμέρισμα,16952672,260000,75,"Αγία Σοφία, Κέντρο Θεσσαλονίκης (Θεσσαλονίκη - Δήμος)","Πατριάρχου Ιωακείμ, Θεσσαλονίκη 54622, Ελλάδα",7,1,1,1,Φυσικό αέριο,Δ,1960,2012,,3cb72be1-ca84-403e-9eea-7db13da2fa5d,40.6328996,22.9487908,5,93.73129523,POINT (22.9487908 40.6328996),26006.08082,3.312876538,113.9263026,243
289,Διαμέρισμα,16924289,78000,52,"Ιπποκράτειο, Φάληρο - Ιπποκράτειο (Θεσσαλονίκη - Δήμος)","Δαβάκη Κωνσταντίνου 7, Θεσσαλονίκη 54641, Ελλάδα",,1,1,1,Ρεύμα,Γ,1957,2023,,f0da89fc-f0e3-46eb-94c8-a6f60d2c95c5,40.657931,22.9204162,14,145.6926986,POINT (22.9204162 40.657931),7262.698491,0.925184521,378.019089,41
290,Studio / Γκαρσονιέρα,16758228,75000,38,"Άγιος Δημήτριος, Κέντρο Θεσσαλονίκης (Θεσσαλονίκη - Δήμος)","Αποστόλου Παύλου 21, Θεσσαλονίκη 546 34, Ελλάδα, Ελλάδα",1,1,1,1,Ρεύμα,Γ,2003,,,6f1c650f-5e19-4477-a42f-09b36ba3d14c,40.6409876,22.9621857,2,178.837682,POINT (22.9621857 40.6409876),22655.29006,2.886024211,201.1336516,28
291,Studio / Γκαρσονιέρα,16756999,94000,40,"Βαρδάρης, Βαρδάρης - Λαχανόκηποι (Θεσσαλονίκη - Δήμος)","Ορφανίδου 10, Θεσσαλονίκη 546 26, Ελλάδα, Ελλάδα",3,,1,,Αυτόνομη,Δ,1980,,,afc49f74-ecc4-46e4-82a7-1a8a6f801388,40.6403167,22.9352716,10,116.9200166,POINT (22.9352716 40.6403167),15433.97984,1.966112081,73.61096678,98
292,Διαμέρισμα,16719925,157000,62,"Αγία Τριάδα, Φάληρο - Ιπποκράτειο (Θεσσαλονίκη - Δήμος)","Πέρδικα, 50, Θεσσαλονίκη Ελλάδα, 54639, Ελλάδα",1,1,1,1,Φυσικό αέριο,Β,1968,2024,,5ab7f6fd-935e-4be2-b8fc-05d4f94e8b6a,40.6274745,22.9642814,3,93.68892912,POINT (22.9642814 40.6274745),11536.13995,1.469571968,339.2305539,28
293,Διαμέρισμα,16716876,155000,67,"Παπάφη, Τούμπα (Θεσσαλονίκη - Δήμος)","Πριάμου 10, Θεσσαλονίκη 544 53, Ελλάδα, Ελλάδα",1,1,1,1,Φυσικό αέριο,Β,1970,2008,,69789f0c-d773-4aae-8ae0-a10af884be3e,40.64094275,22.94854651,14,184.0198904,POINT (22.94854651 40.64094275),5704.040121,0.726629315,224.7693847,146
294,Διαμέρισμα,16673995,180000,100,Βαρδάρης - Λαχανόκηποι (Θεσσαλονίκη - Δήμος),"Παπαζώλη 8, Θεσσαλονίκη 546 30, Ελλάδα, Ελλάδα",5,1,1,1,Φυσικό αέριο,Α,1974,,,22bf42f5-2d6e-45e2-ada5-d0edaf09f572,40.6416772,22.94014376,12,48.20014516,POINT (22.94014376 40.6416772),42550.84581,5.420489913,70.96253267,125
295,Διαμέρισμα,16655746,188000,45,"Καμάρα - Ροτόντα, Κέντρο Θεσσαλονίκης (Θεσσαλονίκη - Δήμος)","Ιστορικό Κέντρο, Θεσσαλονίκη, Ελλάδα",2,,1,,Φυσικό αέριο,Γ,1958,2024,500,87c9470b-6456-4015-8e16-a71f347d0e76,40.6292052,22.9500265,4,76.2794021,POINT (22.9500265 40.6292052),49037.44801,6.246808664,46.46843629,196
296,Διαμέρισμα,16559054,110000,65,"Μαρτίου, Βούλγαρη - Ντεπώ - Μαρτίου (Θεσσαλονίκη - Δήμος)","Γαμβέτα, 140, Θεσσαλονίκη Ελλάδα, 54248, Ελλάδα",,1,1,1,Πετρέλαιο,Ζ,1980,2019,1000,b35159bc-cf8e-4a68-8000-2900396f0e45,40.6151677,22.9589334,7,118.006738,POINT (22.9589334 40.6151677),3728.561042,0.474975929,102.2680361,64
297,Studio / Γκαρσονιέρα,16526147,150000,59,"Μαρτίου, Βούλγαρη - Ντεπώ - Μαρτίου (Θεσσαλονίκη - Δήμος)","Στρωμνίτσης 5, Θεσσαλονίκη 542 48, Ελλάδα, Ελλάδα",3,1,1,1,Φυσικό αέριο,Γ,1970,2023,,14c5cecf-a782-4a01-b7b7-2278c109b3c5,40.6403167,22.9352716,10,116.9200166,POINT (22.9352716 40.6403167),15433.97984,1.966112081,73.61096678,98
298,Διαμέρισμα,16493863,160000,40,"Μαρτίου, Βούλγαρη - Ντεπώ - Μαρτίου (Θεσσαλονίκη - Δήμος)","Λεωφόρος Βασιλίσσης Όλγας 136, Θεσσαλονίκη 54645, Ελλάδα",1,1,1,1,Φυσικό αέριο,Γ,1960,2024,300,34b3b3a0-8552-4475-b077-359a8d4030d7,40.6019918,22.9531166,7,60.27540413,POINT (22.9531166 40.6019918),47804.55707,6.089752493,32.01162562,65
299,Διαμέρισμα,16476265,143000,83,"Οσία Ξένη, Χαριλάου (Θεσσαλονίκη - Δήμος)","Φαίδρας 21, Θεσσαλονίκη 542 49, Ελλάδα, Ελλάδα",1,1,1,1,Θερμοσυσσωρευτής,Δ,1971,,,7db6f839-d39f-45e9-baba-8f1687f30d66,40.6008171,22.967051,12,232.0143746,POINT (22.967051 40.6008171),23226.08274,2.958736655,214.1958393,70
300,Διαμέρισμα,16406108,120000,65,"Μπότσαρη, Ανάληψη - Μπότσαρη - Νέα Παραλία (Θεσσαλονίκη - Δήμος)","Δελφών 100, Θεσσαλονίκη 546 43, Ελλάδα, Ελλάδα",,1,1,1,Φυσικό αέριο,Δ,1978,2024,,64d9374b-ffaa-466b-a7df-b54ce71f1187,40.6331916,22.9427856,7,118.5734008,POINT (22.9427856 40.6331916),9757.037246,1.242934681,47.40976609,235
301,Διαμέρισμα,16354561,120000,42,"Μαρτίου, Βούλγαρη - Ντεπώ - Μαρτίου (Θεσσαλονίκη - Δήμος)","Πέτρου Συνδίκα 44, Θεσσαλονίκη 542 48, Ελλάδα, Ελλάδα",2,1,1,1,Φυσικό αέριο,Β,1965,2024,,82b32eae-cbc0-4126-b728-d14b2e29810e,40.6057693,22.9639417,11,77.45616882,POINT (22.9639417 40.6057693),6413.870236,0.817053533,73.37836794,93
302,Διαμέρισμα,16260400,155000,55,"Παπάφη, Τούμπα (Θεσσαλονίκη - Δήμος)","Λαμπράκη Γρηγορίου 74, Θεσσαλονίκη 54638, Ελλάδα",3,1,1,1,Ατομική θέρμανση,Γ,1973,2024,,84758f29-4736-4e76-b946-89345e3bd657,40.6230153,22.9613076,1,74.25371527,POINT (22.9613076 40.6230153),10348.59834,1.318292782,132.0953745,51
303,Studio / Γκαρσονιέρα,16242323,90000,25,"Καμάρα - Ροτόντα, Κέντρο Θεσσαλονίκης (Θεσσαλονίκη - Δήμος)","Σβώλου Αλεξάνδρου 57, Θεσσαλονίκη 54621, Ελλάδα",1,1,1,1,Ρεύμα,Δ,1974,2018,100,fdbe696d-1235-41e2-b257-dc5f7f384679,40.6766896,22.802169,0,103.8056201,POINT (22.802169 40.6766896),0,0,598.8749496,8
304,Διαμέρισμα,16097581,245000,124,"Βούλγαρη - Άγιος Ελευθέριος - Ντεπώ, Βούλγαρη - Ντεπώ - Μαρτίου (Θεσσαλονίκη - Δήμος)","Λεωφόρος Βασιλίσσης Όλγας 229, Θεσσαλονίκη 54646, Ελλάδα",5,1,1,1,Φυσικό αέριο,Δ,1978,,200,c8cb5d6b-688c-4b94-afb8-c33ce8b4b913,40.5959704,22.95641935,6,65.25315216,POINT (22.95641935 40.5959704),20145.74737,2.566337245,149.0297144,57
305,Studio / Γκαρσονιέρα,15958364,128000,53,Φάληρο - Ιπποκράτειο (Θεσσαλονίκη - Δήμος),"Καραϊσκάκη 13, Θεσσαλονίκη 546 41, Ελλάδα, Ελλάδα",1,1,1,1,Φυσικό αέριο,,1968,2024,400,706bebc6-6e13-4b8a-a8ab-8bba4ca2d25d,40.5993993,22.95298585,7,69.42327483,POINT (22.95298585 40.5993993),30953.46495,3.943116555,43.8501791,59
306,Διαμέρισμα,15796483,165000,74,"Κάτω Τούμπα, Τούμπα (Θεσσαλονίκη - Δήμος)","Βρυούλων 26, Θεσσαλονίκη 543 51, Ελλάδα, Ελλάδα",1,1,1,1,Φυσικό αέριο,,1997,,,301f5412-34ea-47f8-8b7f-c11513d6e362,40.6403167,22.9352716,10,116.9200166,POINT (22.9352716 40.6403167),15433.97984,1.966112081,73.61096678,98
307,Studio / Γκαρσονιέρα,15399644,176000,51,"Κάτω Τούμπα, Τούμπα (Θεσσαλονίκη - Δήμος)","Βαλτετσίου 2, Θεσσαλονίκη 544 53, Ελλάδα, Ελλάδα",4,,1,,Φυσικό αέριο,Β,Υπό κατασκευή,,,11557520-974a-4bcc-beea-fe22bd05f3be,40.6403167,22.9352716,10,116.9200166,POINT (22.9352716 40.6403167),15433.97984,1.966112081,73.61096678,98
308,Studio / Γκαρσονιέρα,15346027,125000,43,"Μαρτίου, Βούλγαρη - Ντεπώ - Μαρτίου (Θεσσαλονίκη - Δήμος)","Αλεξανδρείας 71, Θεσσαλονίκη 546 45, Ελλάδα, Ελλάδα",1,1,1,1,Φυσικό αέριο,,1973,2024,,a979d5f7-a6c5-43e5-8c8d-e841b75e137a,40.60113075,22.95587308,7,129.2254456,POINT (22.95587308 40.60113075),26157.64201,3.332183695,122.45918,71
309,Μεζονέτα,15206559,445000,144,"Κάτω Τούμπα, Τούμπα (Θεσσαλονίκη - Δήμος)","Βιζύης 49, Θεσσαλονίκη 544 54, Ελλάδα, Ελλάδα",5,1,2,1,Φυσικό αέριο,Α,2024,2024,2500,cbbbb55e-2571-43c1-a59b-1488dfefa141,40.6403167,22.9352716,10,116.9200166,POINT (22.9352716 40.6403167),15433.97984,1.966112081,73.61096678,98
310,Studio / Γκαρσονιέρα,15141083,111000,38,"Κάτω Τούμπα, Τούμπα (Θεσσαλονίκη - Δήμος)","Μπότσαρη Μάρκου 134, Θεσσαλονίκη 54453, Ελλάδα",1,1,1,1,Φυσικό αέριο,,1968,2023,,d696f423-8951-48bd-aa04-43637dc669b4,40.6088758,22.96935122,11,47.47509295,POINT (22.96935122 40.6088758),8856.210674,1.128179704,59.50345533,78
311,Διαμέρισμα,14924094,205000,112,"Βαρδάρης, Βαρδάρης - Λαχανόκηποι (Θεσσαλονίκη - Δήμος)","Αντιγονιδών 17, Θεσσαλονίκη 546 30, Ελλάδα, Ελλάδα",3,1,1,1,Χωρίς θέρμανση,,1972,,,a5410576-bea2-4858-aeca-3f49fa5d3813,40.6417612,22.95226088,11,111.5076907,POINT (22.95226088 40.6417612),9239.645741,1.177024935,191.5218211,98
312,Studio / Γκαρσονιέρα,14597845,148000,30,"Άγιος Δημήτριος, Κέντρο Θεσσαλονίκης (Θεσσαλονίκη - Δήμος)","Καμενιάτου Ιωάν., 18, Θεσσαλονίκη Ελλάδα, 54633, Ελλάδα",3,1,1,1,Ρεύμα,Ε,1970,2023,1000,74125859-6bbc-4d39-9718-029f21ca17f9,37.9783699,23.6422408,0,273865.5918,POINT (23.6422408 37.9783699),0,0,279735.7869,0
313,Studio / Γκαρσονιέρα,11277512,75000,26,"Ιπποκράτειο, Φάληρο - Ιπποκράτειο (Θεσσαλονίκη - Δήμος)","Βέλλιου 7, Θεσσαλονίκη 54642, Ελλάδα",1,1,1,1,Φυσικό αέριο,Γ,1966,2024,1100,21175133-9184-4aee-82fd-4ca2de8b3dba,40.6326765,22.9486594,5,109.8309748,POINT (22.9486594 40.6326765),25545.1917,3.254164547,96.13397269,243
314,Studio / Γκαρσονιέρα,17102104,93000,50,"Βαρδάρης, Βαρδάρης - Λαχανόκηποι (Θεσσαλονίκη - Δήμος)","Κωστή Παλαμά 12, 546 30, Θεσσαλονίκη, Ελλάδα",3,1,1,1,Ρεύμα,Η,1970,2023,1200,07910232-25be-46e9-9e50-1e7e9703c80f,40.641002,22.9386394,12,81.62893391,POINT (22.9386394 40.641002),25908.86021,3.300491747,83.03391932,122
315,Διαμέρισμα,16825000,95000,70,"Παναγία Φανερωμένη, Ξηροκρήνη - Παναγία Φανερωμένη (Θεσσαλονίκη - Δήμος)","Παμφυλίας 3, Θεσσαλονίκη 54632, Ελλάδα",3,1,1,1,Χωρίς θέρμανση,Ζ,1965,,,a9086168-5035-4471-af67-070ea5024052,40.6444411,22.9426637,15,73.09993066,POINT (22.9426637 40.6444411),46156.42784,5.879799725,303.8687147,85
316,Διαμέρισμα,16009743,111000,38,"Παπάφη, Τούμπα (Θεσσαλονίκη - Δήμος)","Λυκαονίας 20, 544 53, Θεσσαλονίκη, Ελλάδα",1,,1,,Χωρίς θέρμανση,Δ,1967,,,903e393c-77f6-406a-89b6-56143dfd72bd,40.64094275,22.94854651,14,184.0198904,POINT (22.94854651 40.64094275),5704.040121,0.726629315,224.7693847,146
317,Διαμέρισμα,15538381,160000,55,Ανάληψη - Μπότσαρη - Νέα Παραλία (Θεσσαλονίκη - Δήμος),"ΠΑΤΡΩΝ 9, Θεσσαλονίκη, Ελλάδα",4,1,1,1,Φυσικό αέριο,,Υπό κατασκευή,,,157dc2a0-66f3-400e-8fa6-b840b5602409,38.2589296,21.7391011,0,270562.3984,POINT (21.7391011 38.2589296),0,0,275187.7406,0
318,Μονοκατοικία,14538300,450000,140,"Τσινάρι, Άνω Πόλη (Θεσσαλονίκη - Δήμος)","Θεοφράστου, 2, Θεσσαλονίκη Ελλάδα, 54634, Ελλάδα",2,2,1,1,Πετρέλαιο,Α,1953,,1400,b34abb94-d8e0-425b-b92a-a8f036652306,40.6403167,22.9352716,10,116.9200166,POINT (22.9352716 40.6403167),15433.97984,1.966112081,73.61096678,98
319,Διαμέρισμα,16928084,135000,40,"Ανάληψη, Ανάληψη - Μπότσαρη - Νέα Παραλία (Θεσσαλονίκη - Δήμος)","Αναλήψεως, Θεσσαλονίκη 54643, Ελλάδα",3,1,1,1,Φυσικό αέριο,Γ,,2024,400,1e20aca8-0561-4fce-b46a-9e3e5df44ca1,40.6274745,22.9642814,3,93.68892912,POINT (22.9642814 40.6274745),11536.13995,1.469571968,339.2305539,28
320,Διαμέρισμα,16588184,170000,76,"40 Εκκλησιές, 40 Εκκλησιές - Ευαγγελίστρια (Θεσσαλονίκη - Δήμος)","Ηράκλειας 7, Θεσσαλονίκη 54636, Ελλάδα",3,1,1,1,Φυσικό αέριο,Δ,1980,2014,2400,4ca11f7c-fc7a-49b0-9115-ef9069dcdaf5,40.63203735,22.96553059,2,35.01547032,POINT (22.96553059 40.63203735),23952.32016,3.051250976,205.3191288,16
